{"businesses_new york_food": [{"id": "WUc3CA6S8OjH3kiqv3eFOA", "alias": "sobak-new-york-2", "name": "Sobak", "image_url": "https://s3-media4.fl.yelpcdn.com/bphoto/jIzMOv8F8L5Yk1E-1KYQtg/o.jpg", "is_closed": false, "url": "https://www.yelp.com/biz/sobak-new-york-2?adjust_creative=mOQnsCAQCU1OEchZbfnYAg&utm_campaign=yelp_api_v3&utm_medium=api_v3_business_search&utm_source=mOQnsCAQCU1OEchZbfnYAg", "review_count": 16, "categories": [{"alias": "korean", "title": "Korean"}], "rating": 5.0, "coordinates": {"latitude": 40.71497047687499, "longitude": -73.99158544320115}, "transactions": [], "price": "$$", "location": {"address1": "51B Canal St", "address2": "", "address3": null, "city": "New York", "zip_code": "10002", "country": "US", "state": "NY", "display_address": ["51B Canal St", "New York, NY 10002"]}, "phone": "", "display_phone": "", "distance": 1371.8443186524503}, {"id": "Bn25orKr4DP_Onk3iS-QZw", "alias": "m\u1eafm-new-york-2", "name": "M\u1eafm", "image_url": "https://s3-media1.fl.yelpcdn.com/bphoto/E8dvBeRP-43EX9sfJBbGFQ/o.jpg", "is_closed": false, "url": "https://www.yelp.com/biz/m%E1%BA%AFm-new-york-2?adjust_creative=mOQnsCAQCU1OEchZbfnYAg&utm_campaign=yelp_api_v3&utm_medium=api_v3_business_search&utm_source=mOQnsCAQCU1OEchZbfnYAg", "review_count": 26, "categories": [{"alias": "vietnamese", "title": "Vietnamese"}], "rating": 4.5, "coordinates": {"latitude": 40.71704, "longitude": -73.99338}, "transactions": [], "location": {"address1": "70 Forsyth St", "address2": "", "address3": null, "city": "New York", "zip_code": "10002", "country": "US", "state": "NY", "display_address": ["70 Forsyth St", "New York, NY 10002"]}, "phone": "", "display_phone": "", "distance": 1632.3846974780035}, {"id": "4aF0F8w7yXX9o5_QFky_ig", "alias": "celestine-brooklyn", "name": "Celestine", "image_url": "https://s3-media3.fl.yelpcdn.com/bphoto/p98BTWB9IIb4RQyDQw13ZQ/o.jpg", "is_closed": false, "url": "https://www.yelp.com/biz/celestine-brooklyn?adjust_creative=mOQnsCAQCU1OEchZbfnYAg&utm_campaign=yelp_api_v3&utm_medium=api_v3_business_search&utm_source=mOQnsCAQCU1OEchZbfnYAg", "review_count": 280, "categories": [{"alias": "mediterranean", "title": "Mediterranean"}, {"alias": "bars", "title": "Bars"}], "rating": 4.0, "coordinates": {"latitude": 40.704676, "longitude": -73.987975}, "transactions": ["delivery"], "price": "$$$", "location": {"address1": "1 John St", "address2": "", "address3": null, "city": "Brooklyn", "zip_code": "11201", "country": "US", "state": "NY", "display_address": ["1 John St", "Brooklyn, NY 11201"]}, "phone": "+17185225356", "display_phone": "(718) 522-5356", "distance": 783.7355533804409}, {"id": "iufQFxf-g1j-5lC6GRTiog", "alias": "the-migrant-kitchen-brooklyn-brooklyn", "name": "The Migrant Kitchen - Brooklyn", "image_url": "https://s3-media1.fl.yelpcdn.com/bphoto/Q2kxEefNhre0WBriY_i3MA/o.jpg", "is_closed": false, "url": "https://www.yelp.com/biz/the-migrant-kitchen-brooklyn-brooklyn?adjust_creative=mOQnsCAQCU1OEchZbfnYAg&utm_campaign=yelp_api_v3&utm_medium=api_v3_business_search&utm_source=mOQnsCAQCU1OEchZbfnYAg", "review_count": 54, "categories": [{"alias": "mideastern", "title": "Middle Eastern"}, {"alias": "latin", "title": "Latin American"}], "rating": 4.5, "coordinates": {"latitude": 40.70343127955398, "longitude": -73.99161055480388}, "transactions": ["pickup", "delivery"], "location": {"address1": "55 Water St", "address2": null, "address3": "", "city": "Brooklyn", "zip_code": "11201", "country": "US", "state": "NY", "display_address": ["55 Water St", "Brooklyn, NY 11201"]}, "phone": "+19177475601", "display_phone": "(917) 747-5601", "distance": 1119.0169833815937}, {"id": "GHA89UOpqFmylJ5dO03NfQ", "alias": "smith-gourmet-deli-brooklyn", "name": "Smith Gourmet Deli", "image_url": "https://s3-media4.fl.yelpcdn.com/bphoto/M_R2m3x2p9eI8n-3BbhmCA/o.jpg", "is_closed": false, "url": "https://www.yelp.com/biz/smith-gourmet-deli-brooklyn?adjust_creative=mOQnsCAQCU1OEchZbfnYAg&utm_campaign=yelp_api_v3&utm_medium=api_v3_business_search&utm_source=mOQnsCAQCU1OEchZbfnYAg", "review_count": 54, "categories": [{"alias": "sandwiches", "title": "Sandwiches"}, {"alias": "salad", "title": "Salad"}, {"alias": "delis", "title": "Delis"}], "rating": 5.0, "coordinates": {"latitude": 40.68751, "longitude": -73.99007}, "transactions": ["delivery"], "price": "$", "location": {"address1": "126 Smith St", "address2": null, "address3": "", "city": "Brooklyn", "zip_code": "11201", "country": "US", "state": "NY", "display_address": ["126 Smith St", "Brooklyn, NY 11201"]}, "phone": "+19292502270", "display_phone": "(929) 250-2270", "distance": 2350.0287637444335}, {"id": "4fSVJCi8E_OIfIoe6UdqKg", "alias": "brooklyn-bbq-brooklyn", "name": "Brooklyn BBQ", "image_url": "https://s3-media1.fl.yelpcdn.com/bphoto/Xu_mYT-NIuY3I4nYaBzgGg/o.jpg", "is_closed": false, "url": "https://www.yelp.com/biz/brooklyn-bbq-brooklyn?adjust_creative=mOQnsCAQCU1OEchZbfnYAg&utm_campaign=yelp_api_v3&utm_medium=api_v3_business_search&utm_source=mOQnsCAQCU1OEchZbfnYAg", "review_count": 14, "categories": [{"alias": "bbq", "title": "Barbeque"}], "rating": 4.5, "coordinates": {"latitude": 40.697978, "longitude": -73.991777}, "transactions": ["delivery"], "price": "$$", "location": {"address1": "220 Cadman Plz W", "address2": null, "address3": null, "city": "Brooklyn", "zip_code": "11201", "country": "US", "state": "NY", "display_address": ["220 Cadman Plz W", "Brooklyn, NY 11201"]}, "phone": "+13477991223", "display_phone": "(347) 799-1223", "distance": 1456.8982697555557}, {"id": "AR_0QV4O12sHojkky_IMkg", "alias": "canal-street-market-new-york", "name": "Canal Street Market", "image_url": "https://s3-media2.fl.yelpcdn.com/bphoto/gXqb8XpUt3bkKgjATIXFTQ/o.jpg", "is_closed": false, "url": "https://www.yelp.com/biz/canal-street-market-new-york?adjust_creative=mOQnsCAQCU1OEchZbfnYAg&utm_campaign=yelp_api_v3&utm_medium=api_v3_business_search&utm_source=mOQnsCAQCU1OEchZbfnYAg", "review_count": 212, "categories": [{"alias": "food_court", "title": "Food Court"}], "rating": 4.0, "coordinates": {"latitude": 40.71897, "longitude": -74.00102}, "transactions": [], "price": "$$", "location": {"address1": "265 Canal St", "address2": "", "address3": null, "city": "New York", "zip_code": "10013", "country": "US", "state": "NY", "display_address": ["265 Canal St", "New York, NY 10013"]}, "phone": "+16466941655", "display_phone": "(646) 694-1655", "distance": 2267.909943698377}, {"id": "5Fz1WlY3lxy8gJFs8s_1Dw", "alias": "the-binc-brooklyn", "name": "The Binc", "image_url": "https://s3-media3.fl.yelpcdn.com/bphoto/R4y606WaaPxlHeGNajM6KA/o.jpg", "is_closed": false, "url": "https://www.yelp.com/biz/the-binc-brooklyn?adjust_creative=mOQnsCAQCU1OEchZbfnYAg&utm_campaign=yelp_api_v3&utm_medium=api_v3_business_search&utm_source=mOQnsCAQCU1OEchZbfnYAg", "review_count": 89, "categories": [{"alias": "cocktailbars", "title": "Cocktail Bars"}, {"alias": "tapasmallplates", "title": "Tapas/Small Plates"}], "rating": 4.5, "coordinates": {"latitude": 40.69925, "longitude": -73.99227}, "transactions": ["delivery"], "price": "$$", "location": {"address1": "60 Henry St", "address2": null, "address3": "", "city": "Brooklyn", "zip_code": "11201", "country": "US", "state": "NY", "display_address": ["60 Henry St", "Brooklyn, NY 11201"]}, "phone": "+17186241444", "display_phone": "(718) 624-1444", "distance": 1398.0869826737433}, {"id": "-2UtjTxrt1Xzd-HPsLJ7mA", "alias": "butler-brooklyn-2", "name": "Butler", "image_url": "https://s3-media3.fl.yelpcdn.com/bphoto/bdMNkvxL7UpST2PuDCjvXw/o.jpg", "is_closed": false, "url": "https://www.yelp.com/biz/butler-brooklyn-2?adjust_creative=mOQnsCAQCU1OEchZbfnYAg&utm_campaign=yelp_api_v3&utm_medium=api_v3_business_search&utm_source=mOQnsCAQCU1OEchZbfnYAg", "review_count": 182, "categories": [{"alias": "coffee", "title": "Coffee & Tea"}, {"alias": "cafes", "title": "Cafes"}], "rating": 4.0, "coordinates": {"latitude": 40.7032670673495, "longitude": -73.9922419276899}, "transactions": ["pickup", "delivery"], "price": "$$", "location": {"address1": "40 Water St", "address2": "", "address3": null, "city": "Brooklyn", "zip_code": "11201", "country": "US", "state": "NY", "display_address": ["40 Water St", "Brooklyn, NY 11201"]}, "phone": "", "display_phone": "", "distance": 1188.749189064963}, {"id": "B0R-buSLWRbGFWpmqk_WZQ", "alias": "farmer-in-the-deli-brooklyn", "name": "Farmer In the Deli", "image_url": "https://s3-media1.fl.yelpcdn.com/bphoto/LJzivkaqFtQG21YGZhPf-Q/o.jpg", "is_closed": false, "url": "https://www.yelp.com/biz/farmer-in-the-deli-brooklyn?adjust_creative=mOQnsCAQCU1OEchZbfnYAg&utm_campaign=yelp_api_v3&utm_medium=api_v3_business_search&utm_source=mOQnsCAQCU1OEchZbfnYAg", "review_count": 185, "categories": [{"alias": "delis", "title": "Delis"}, {"alias": "sandwiches", "title": "Sandwiches"}], "rating": 4.5, "coordinates": {"latitude": 40.69333, "longitude": -73.97172}, "transactions": ["pickup", "delivery"], "price": "$", "location": {"address1": "357 Myrtle Ave", "address2": "", "address3": "", "city": "Brooklyn", "zip_code": "11205", "country": "US", "state": "NY", "display_address": ["357 Myrtle Ave", "Brooklyn, NY 11205"]}, "phone": "+17188759067", "display_phone": "(718) 875-9067", "distance": 1636.0736387302504}, {"id": "qgY41g_eg0eNzewCXmKcaA", "alias": "lillo-cucina-italiana-brooklyn", "name": "Lillo Cucina Italiana", "image_url": "https://s3-media2.fl.yelpcdn.com/bphoto/pXCk0KPUImmnM4pgEsBbUg/o.jpg", "is_closed": false, "url": "https://www.yelp.com/biz/lillo-cucina-italiana-brooklyn?adjust_creative=mOQnsCAQCU1OEchZbfnYAg&utm_campaign=yelp_api_v3&utm_medium=api_v3_business_search&utm_source=mOQnsCAQCU1OEchZbfnYAg", "review_count": 200, "categories": [{"alias": "cafes", "title": "Cafes"}, {"alias": "italian", "title": "Italian"}], "rating": 5.0, "coordinates": {"latitude": 40.69023, "longitude": -73.99634}, "transactions": ["delivery"], "price": "$$", "location": {"address1": "331 Henry St", "address2": null, "address3": "", "city": "Brooklyn", "zip_code": "11201", "country": "US", "state": "NY", "display_address": ["331 Henry St", "Brooklyn, NY 11201"]}, "phone": "+13477630899", "display_phone": "(347) 763-0899", "distance": 2356.6810329571504}, {"id": "T-t9GtsWKU7LZV7jloCTuA", "alias": "ta-da-chicken-new-york", "name": "Ta-Da Chicken", "image_url": "https://s3-media2.fl.yelpcdn.com/bphoto/e-JHLFFt2zLN_3XaAHeWcA/o.jpg", "is_closed": false, "url": "https://www.yelp.com/biz/ta-da-chicken-new-york?adjust_creative=mOQnsCAQCU1OEchZbfnYAg&utm_campaign=yelp_api_v3&utm_medium=api_v3_business_search&utm_source=mOQnsCAQCU1OEchZbfnYAg", "review_count": 4, "categories": [{"alias": "foodstands", "title": "Food Stands"}, {"alias": "korean", "title": "Korean"}], "rating": 5.0, "coordinates": {"latitude": 40.7539221, "longitude": -73.9845647}, "transactions": [], "location": {"address1": "1080 6th Ave", "address2": "", "address3": null, "city": "New York", "zip_code": "10018", "country": "US", "state": "NY", "display_address": ["1080 6th Ave", "New York, NY 10018"]}, "phone": "", "display_phone": "", "distance": 5268.7100822921}, {"id": "ur679FKjXosJ1VnddICDiw", "alias": "don-wagyu-new-york", "name": "Don Wagyu", "image_url": "https://s3-media2.fl.yelpcdn.com/bphoto/N009zwvnWhfWTrW3SWf0tQ/o.jpg", "is_closed": false, "url": "https://www.yelp.com/biz/don-wagyu-new-york?adjust_creative=mOQnsCAQCU1OEchZbfnYAg&utm_campaign=yelp_api_v3&utm_medium=api_v3_business_search&utm_source=mOQnsCAQCU1OEchZbfnYAg", "review_count": 63, "categories": [{"alias": "japanese", "title": "Japanese"}], "rating": 4.0, "coordinates": {"latitude": 40.76234, "longitude": -73.996759}, "transactions": ["delivery"], "location": {"address1": "600 11th Ave", "address2": "", "address3": "Gotham West Market", "city": "New York", "zip_code": "10036", "country": "US", "state": "NY", "display_address": ["600 11th Ave", "Gotham West Market", "New York, NY 10036"]}, "phone": "", "display_phone": "", "distance": 6331.538044740304}, {"id": "8ig0yf0003DAp4YOGTlbVg", "alias": "spicy-village-new-york", "name": "Spicy Village", "image_url": "https://s3-media2.fl.yelpcdn.com/bphoto/NBSzFmT74KCxd5O_g6AkkQ/o.jpg", "is_closed": false, "url": "https://www.yelp.com/biz/spicy-village-new-york?adjust_creative=mOQnsCAQCU1OEchZbfnYAg&utm_campaign=yelp_api_v3&utm_medium=api_v3_business_search&utm_source=mOQnsCAQCU1OEchZbfnYAg", "review_count": 808, "categories": [{"alias": "chinese", "title": "Chinese"}], "rating": 4.0, "coordinates": {"latitude": 40.71695, "longitude": -73.99327}, "transactions": ["pickup", "delivery"], "price": "$$", "location": {"address1": "68 Forsyth St", "address2": "Ste B", "address3": "", "city": "New York", "zip_code": "10002", "country": "US", "state": "NY", "display_address": ["68 Forsyth St", "Ste B", "New York, NY 10002"]}, "phone": "+12126258299", "display_phone": "(212) 625-8299", "distance": 1631.8505213390135}, {"id": "PoYa-4rAZlNOpekzYlkdXQ", "alias": "tagmo-treats-new-york", "name": "Tagmo Treats", "image_url": "https://s3-media1.fl.yelpcdn.com/bphoto/L4FGMBc8ZfmOSn2QdBo0SA/o.jpg", "is_closed": false, "url": "https://www.yelp.com/biz/tagmo-treats-new-york?adjust_creative=mOQnsCAQCU1OEchZbfnYAg&utm_campaign=yelp_api_v3&utm_medium=api_v3_business_search&utm_source=mOQnsCAQCU1OEchZbfnYAg", "review_count": 8, "categories": [{"alias": "desserts", "title": "Desserts"}], "rating": 4.5, "coordinates": {"latitude": 40.707637410782205, "longitude": -74.00217502788762}, "transactions": [], "location": {"address1": "226 Front St", "address2": null, "address3": "", "city": "New York", "zip_code": "10038", "country": "US", "state": "NY", "display_address": ["226 Front St", "New York, NY 10038"]}, "phone": "", "display_phone": "", "distance": 1939.0789135344403}, {"id": "ErJ0cbHUxOozl0sz_3wl5A", "alias": "casatulum-new-york-2", "name": "CasaTulum", "image_url": "https://s3-media2.fl.yelpcdn.com/bphoto/EYLQTZv8-g4_WWITjzcqzA/o.jpg", "is_closed": false, "url": "https://www.yelp.com/biz/casatulum-new-york-2?adjust_creative=mOQnsCAQCU1OEchZbfnYAg&utm_campaign=yelp_api_v3&utm_medium=api_v3_business_search&utm_source=mOQnsCAQCU1OEchZbfnYAg", "review_count": 18, "categories": [{"alias": "mexican", "title": "Mexican"}, {"alias": "cocktailbars", "title": "Cocktail Bars"}], "rating": 4.0, "coordinates": {"latitude": 40.707471, "longitude": -74.001911}, "transactions": [], "location": {"address1": "229 Front St", "address2": "", "address3": null, "city": "New York", "zip_code": "10038", "country": "US", "state": "NY", "display_address": ["229 Front St", "New York, NY 10038"]}, "phone": "+12124335800", "display_phone": "(212) 433-5800", "distance": 1914.8316066761165}, {"id": "ECk9dN7IVQvueTCoGO6gCA", "alias": "akwaaba-restaurant-brooklyn", "name": "AKWAABA RESTAURANT", "image_url": "https://s3-media4.fl.yelpcdn.com/bphoto/OW3kWgC6_CefterSId-Hvw/o.jpg", "is_closed": false, "url": "https://www.yelp.com/biz/akwaaba-restaurant-brooklyn?adjust_creative=mOQnsCAQCU1OEchZbfnYAg&utm_campaign=yelp_api_v3&utm_medium=api_v3_business_search&utm_source=mOQnsCAQCU1OEchZbfnYAg", "review_count": 30, "categories": [{"alias": "african", "title": "African"}], "rating": 4.5, "coordinates": {"latitude": 40.655952, "longitude": -73.953308}, "transactions": ["delivery"], "price": "$$", "location": {"address1": "604 Parkside Ave", "address2": "", "address3": "", "city": "Brooklyn", "zip_code": "11226", "country": "US", "state": "NY", "display_address": ["604 Parkside Ave", "Brooklyn, NY 11226"]}, "phone": "+13479852588", "display_phone": "(347) 985-2588", "distance": 6075.249601214281}, {"id": "w3CHmfkPc5K7MzYfBmyrNQ", "alias": "bohos-kitchen-new-york-3", "name": "BOHO's Kitchen", "image_url": "https://s3-media1.fl.yelpcdn.com/bphoto/au_wTM1HC9bRHQm486Vf1w/o.jpg", "is_closed": false, "url": "https://www.yelp.com/biz/bohos-kitchen-new-york-3?adjust_creative=mOQnsCAQCU1OEchZbfnYAg&utm_campaign=yelp_api_v3&utm_medium=api_v3_business_search&utm_source=mOQnsCAQCU1OEchZbfnYAg", "review_count": 7, "categories": [{"alias": "izakaya", "title": "Izakaya"}, {"alias": "chicken_wings", "title": "Chicken Wings"}, {"alias": "beerbar", "title": "Beer Bar"}], "rating": 4.5, "coordinates": {"latitude": 40.72072, "longitude": -73.98864}, "transactions": [], "location": {"address1": "152 Orchard St", "address2": "", "address3": null, "city": "New York", "zip_code": "10002", "country": "US", "state": "NY", "display_address": ["152 Orchard St", "New York, NY 10002"]}, "phone": "+12127770343", "display_phone": "(212) 777-0343", "distance": 1715.8071934082081}, {"id": "uC5_J2l9uwTleh7j5W__kg", "alias": "bokki-seoul-food-brooklyn", "name": "Bokki Seoul Food", "image_url": "https://s3-media2.fl.yelpcdn.com/bphoto/ZadnaWBytRRTDI2Yn1aCrA/o.jpg", "is_closed": false, "url": "https://www.yelp.com/biz/bokki-seoul-food-brooklyn?adjust_creative=mOQnsCAQCU1OEchZbfnYAg&utm_campaign=yelp_api_v3&utm_medium=api_v3_business_search&utm_source=mOQnsCAQCU1OEchZbfnYAg", "review_count": 46, "categories": [{"alias": "korean", "title": "Korean"}], "rating": 4.0, "coordinates": {"latitude": 40.69278448368199, "longitude": -73.98827794662675}, "transactions": ["pickup", "delivery"], "location": {"address1": "374 Pearl St", "address2": null, "address3": "", "city": "Brooklyn", "zip_code": "11201", "country": "US", "state": "NY", "display_address": ["374 Pearl St", "Brooklyn, NY 11201"]}, "phone": "+17182431342", "display_phone": "(718) 243-1342", "distance": 1754.4467760838036}, {"id": "uSS5cbcb_KLoXE5yzwjI6w", "alias": "gitano-island-new-york", "name": "Gitano Island", "image_url": "https://s3-media2.fl.yelpcdn.com/bphoto/lkAS5Cka5-HP_gGM6OWwDA/o.jpg", "is_closed": false, "url": "https://www.yelp.com/biz/gitano-island-new-york?adjust_creative=mOQnsCAQCU1OEchZbfnYAg&utm_campaign=yelp_api_v3&utm_medium=api_v3_business_search&utm_source=mOQnsCAQCU1OEchZbfnYAg", "review_count": 75, "categories": [{"alias": "mexican", "title": "Mexican"}, {"alias": "cocktailbars", "title": "Cocktail Bars"}], "rating": 3.5, "coordinates": {"latitude": 40.69153851083249, "longitude": -74.01397807055223}, "transactions": [], "location": {"address1": "125 Carder Rd", "address2": "", "address3": null, "city": "New York", "zip_code": "10004", "country": "US", "state": "NY", "display_address": ["125 Carder Rd", "New York, NY 10004"]}, "phone": "", "display_phone": "", "distance": 3398.4402255184946}, {"id": "48nRODGl30EWpYMcCTOeAw", "alias": "ingas-bar-brooklyn", "name": "Ingas Bar", "image_url": "https://s3-media3.fl.yelpcdn.com/bphoto/Hc_NyRGNOiPXkwS4uGueNg/o.jpg", "is_closed": false, "url": "https://www.yelp.com/biz/ingas-bar-brooklyn?adjust_creative=mOQnsCAQCU1OEchZbfnYAg&utm_campaign=yelp_api_v3&utm_medium=api_v3_business_search&utm_source=mOQnsCAQCU1OEchZbfnYAg", "review_count": 29, "categories": [{"alias": "newamerican", "title": "American (New)"}], "rating": 4.0, "coordinates": {"latitude": 40.69992328722937, "longitude": -73.99371282578757}, "transactions": [], "location": {"address1": "66 Hicks St", "address2": "", "address3": null, "city": "Brooklyn", "zip_code": "11201", "country": "US", "state": "NY", "display_address": ["66 Hicks St", "Brooklyn, NY 11201"]}, "phone": "+19179091177", "display_phone": "(917) 909-1177", "distance": 1454.179286821878}, {"id": "fJXCMGOhaS6rKGjoGldSSQ", "alias": "taqueria-tepango-brooklyn", "name": "Taqueria Tepango", "image_url": "https://s3-media1.fl.yelpcdn.com/bphoto/M-AzGQe6mViLqTXCS1vtQg/o.jpg", "is_closed": false, "url": "https://www.yelp.com/biz/taqueria-tepango-brooklyn?adjust_creative=mOQnsCAQCU1OEchZbfnYAg&utm_campaign=yelp_api_v3&utm_medium=api_v3_business_search&utm_source=mOQnsCAQCU1OEchZbfnYAg", "review_count": 235, "categories": [{"alias": "mexican", "title": "Mexican"}], "rating": 4.0, "coordinates": {"latitude": 40.6937857, "longitude": -73.9616331}, "transactions": ["pickup", "delivery"], "price": "$", "location": {"address1": "568 Myrtle Ave", "address2": "", "address3": "", "city": "Brooklyn", "zip_code": "11205", "country": "US", "state": "NY", "display_address": ["568 Myrtle Ave", "Brooklyn, NY 11205"]}, "phone": "+17186368878", "display_phone": "(718) 636-8878", "distance": 2075.1565091881807}, {"id": "-vfftvs-9Vq_fMv3qAcaTw", "alias": "sippy-cafe-brooklyn", "name": "Sippy Cafe", "image_url": "https://s3-media1.fl.yelpcdn.com/bphoto/OlVFOtqAHFx7tGDODLRi3Q/o.jpg", "is_closed": false, "url": "https://www.yelp.com/biz/sippy-cafe-brooklyn?adjust_creative=mOQnsCAQCU1OEchZbfnYAg&utm_campaign=yelp_api_v3&utm_medium=api_v3_business_search&utm_source=mOQnsCAQCU1OEchZbfnYAg", "review_count": 29, "categories": [{"alias": "cafes", "title": "Cafes"}, {"alias": "breakfast_brunch", "title": "Breakfast & Brunch"}, {"alias": "sandwiches", "title": "Sandwiches"}], "rating": 5.0, "coordinates": {"latitude": 40.73226104990206, "longitude": -73.95779777467524}, "transactions": ["delivery"], "location": {"address1": "200 Franklin St", "address2": "", "address3": null, "city": "Brooklyn", "zip_code": "11222", "country": "US", "state": "NY", "display_address": ["200 Franklin St", "Brooklyn, NY 11222"]}, "phone": "", "display_phone": "", "distance": 3339.637812975245}, {"id": "XQiIGgSjx3wIxvvzOZP9Cw", "alias": "chino-grande-brooklyn-2", "name": "Chino Grande", "image_url": "https://s3-media3.fl.yelpcdn.com/bphoto/ZGKUxTlHdBG2uHZqsOOQWg/o.jpg", "is_closed": false, "url": "https://www.yelp.com/biz/chino-grande-brooklyn-2?adjust_creative=mOQnsCAQCU1OEchZbfnYAg&utm_campaign=yelp_api_v3&utm_medium=api_v3_business_search&utm_source=mOQnsCAQCU1OEchZbfnYAg", "review_count": 23, "categories": [{"alias": "newamerican", "title": "American (New)"}, {"alias": "karaoke", "title": "Karaoke"}], "rating": 4.5, "coordinates": {"latitude": 40.71350664203596, "longitude": -73.95855296810493}, "transactions": [], "location": {"address1": "253 Grand St", "address2": null, "address3": "", "city": "Brooklyn", "zip_code": "11211", "country": "US", "state": "NY", "display_address": ["253 Grand St", "Brooklyn, NY 11211"]}, "phone": "+19179090466", "display_phone": "(917) 909-0466", "distance": 1884.6352430177737}, {"id": "cOtB9fWWLrbaBebZDjJquQ", "alias": "dunhuang-miss-noodles-brooklyn", "name": "DunHuang Miss Noodles", "image_url": "https://s3-media4.fl.yelpcdn.com/bphoto/RrlOuwLfm1pi5oqXk6CN4Q/o.jpg", "is_closed": false, "url": "https://www.yelp.com/biz/dunhuang-miss-noodles-brooklyn?adjust_creative=mOQnsCAQCU1OEchZbfnYAg&utm_campaign=yelp_api_v3&utm_medium=api_v3_business_search&utm_source=mOQnsCAQCU1OEchZbfnYAg", "review_count": 85, "categories": [{"alias": "chinese", "title": "Chinese"}, {"alias": "noodles", "title": "Noodles"}, {"alias": "asianfusion", "title": "Asian Fusion"}], "rating": 4.0, "coordinates": {"latitude": 40.693868137768895, "longitude": -73.9634565145772}, "transactions": ["pickup", "delivery"], "location": {"address1": "531 Myrtle Ave", "address2": null, "address3": "", "city": "Brooklyn", "zip_code": "11205", "country": "US", "state": "NY", "display_address": ["531 Myrtle Ave", "Brooklyn, NY 11205"]}, "phone": "+17187893530", "display_phone": "(718) 789-3530", "distance": 1970.6420784029203}, {"id": "ZdhzqQd3haOn1eAiwH2WDw", "alias": "steak-freak-new-york", "name": "Steak Freak", "image_url": "https://s3-media1.fl.yelpcdn.com/bphoto/iBc7XXAVRWSE2qA0b0ESvg/o.jpg", "is_closed": false, "url": "https://www.yelp.com/biz/steak-freak-new-york?adjust_creative=mOQnsCAQCU1OEchZbfnYAg&utm_campaign=yelp_api_v3&utm_medium=api_v3_business_search&utm_source=mOQnsCAQCU1OEchZbfnYAg", "review_count": 130, "categories": [{"alias": "foodtrucks", "title": "Food Trucks"}, {"alias": "steak", "title": "Steakhouses"}], "rating": 4.5, "coordinates": {"latitude": 40.7545583408224, "longitude": -73.9842533892464}, "transactions": [], "price": "$", "location": {"address1": "50 St 6th Ave", "address2": "", "address3": "", "city": "New York", "zip_code": "10020", "country": "US", "state": "NY", "display_address": ["50 St 6th Ave", "New York, NY 10020"]}, "phone": "+19177445782", "display_phone": "(917) 744-5782", "distance": 5885.603511308694}, {"id": "SzfZss_zbqvwLs5A7m90vA", "alias": "wanpo-tea-shop-brooklyn", "name": "Wanpo Tea Shop", "image_url": "https://s3-media3.fl.yelpcdn.com/bphoto/e4gJPhOX1CB3XevHWjXWTQ/o.jpg", "is_closed": false, "url": "https://www.yelp.com/biz/wanpo-tea-shop-brooklyn?adjust_creative=mOQnsCAQCU1OEchZbfnYAg&utm_campaign=yelp_api_v3&utm_medium=api_v3_business_search&utm_source=mOQnsCAQCU1OEchZbfnYAg", "review_count": 13, "categories": [{"alias": "bubbletea", "title": "Bubble Tea"}], "rating": 4.5, "coordinates": {"latitude": 40.69197829520578, "longitude": -73.98584081533122}, "transactions": [], "location": {"address1": "72 Willoughby St", "address2": "", "address3": null, "city": "Brooklyn", "zip_code": "11201", "country": "US", "state": "NY", "display_address": ["72 Willoughby St", "Brooklyn, NY 11201"]}, "phone": "", "display_phone": "", "distance": 1759.654189818186}, {"id": "0TpqamJ74OjeCCevZoLiDQ", "alias": "baked-cheese-haus-new-york", "name": "Baked Cheese Haus", "image_url": "https://s3-media2.fl.yelpcdn.com/bphoto/fzzZEYUhVk6ydH-nkRpsKQ/o.jpg", "is_closed": false, "url": "https://www.yelp.com/biz/baked-cheese-haus-new-york?adjust_creative=mOQnsCAQCU1OEchZbfnYAg&utm_campaign=yelp_api_v3&utm_medium=api_v3_business_search&utm_source=mOQnsCAQCU1OEchZbfnYAg", "review_count": 36, "categories": [{"alias": "cheese", "title": "Cheese Shops"}], "rating": 4.5, "coordinates": {"latitude": 40.7529924313151, "longitude": -73.9832981480782}, "transactions": [], "location": {"address1": "Bryant Park", "address2": "", "address3": null, "city": "New York", "zip_code": "10018", "country": "US", "state": "NY", "display_address": ["Bryant Park", "New York, NY 10018"]}, "phone": "+16086301355", "display_phone": "(608) 630-1355", "distance": 5128.311294866158}, {"id": "WGWs26XdRuzct9kDMxKWGA", "alias": "elsa-la-reina-del-chicharron-new-york-2", "name": "Elsa La Reina Del Chicharron", "image_url": "https://s3-media1.fl.yelpcdn.com/bphoto/ZoZhYTeOV4ql18NMdpzGzg/o.jpg", "is_closed": false, "url": "https://www.yelp.com/biz/elsa-la-reina-del-chicharron-new-york-2?adjust_creative=mOQnsCAQCU1OEchZbfnYAg&utm_campaign=yelp_api_v3&utm_medium=api_v3_business_search&utm_source=mOQnsCAQCU1OEchZbfnYAg", "review_count": 29, "categories": [{"alias": "dominican", "title": "Dominican"}, {"alias": "desserts", "title": "Desserts"}, {"alias": "seafood", "title": "Seafood"}], "rating": 4.0, "coordinates": {"latitude": 40.84381, "longitude": -73.93798}, "transactions": ["delivery"], "price": "$", "location": {"address1": "1249 St Nicholas Ave", "address2": "", "address3": "", "city": "New York", "zip_code": "10032", "country": "US", "state": "NY", "display_address": ["1249 St Nicholas Ave", "New York, NY 10032"]}, "phone": "+12127953667", "display_phone": "(212) 795-3667", "distance": 15606.283734618026}, {"id": "tkmIXzaA-pLBWeH_sQDsqQ", "alias": "jasleen-deli-bedford-stuyvesant", "name": "Jasleen Deli", "image_url": "https://s3-media3.fl.yelpcdn.com/bphoto/oDKeZ6D5A4nUhZwjLagiEg/o.jpg", "is_closed": false, "url": "https://www.yelp.com/biz/jasleen-deli-bedford-stuyvesant?adjust_creative=mOQnsCAQCU1OEchZbfnYAg&utm_campaign=yelp_api_v3&utm_medium=api_v3_business_search&utm_source=mOQnsCAQCU1OEchZbfnYAg", "review_count": 8, "categories": [{"alias": "delis", "title": "Delis"}], "rating": 4.5, "coordinates": {"latitude": 40.6846109, "longitude": -73.950225}, "transactions": [], "location": {"address1": "383 Nostrand Ave", "address2": "", "address3": "", "city": "Bedford-Stuyvesant", "zip_code": "11216", "country": "US", "state": "NY", "display_address": ["383 Nostrand Ave", "Bedford-Stuyvesant, NY 11216"]}, "phone": "", "display_phone": "", "distance": 3485.2948414446905}, {"id": "QQfwlKFD6X8-ZXf7gfQZqg", "alias": "hardee-new-york-4", "name": "Hardee", "image_url": "https://s3-media1.fl.yelpcdn.com/bphoto/w2rSwrMnLYsmVnlRcrZvrA/o.jpg", "is_closed": false, "url": "https://www.yelp.com/biz/hardee-new-york-4?adjust_creative=mOQnsCAQCU1OEchZbfnYAg&utm_campaign=yelp_api_v3&utm_medium=api_v3_business_search&utm_source=mOQnsCAQCU1OEchZbfnYAg", "review_count": 31, "categories": [{"alias": "chinese", "title": "Chinese"}], "rating": 4.5, "coordinates": {"latitude": 40.6933441162109, "longitude": -73.9722290039062}, "transactions": [], "price": "$", "location": {"address1": "351 Myrtle Ave", "address2": "", "address3": "", "city": "New York", "zip_code": "11205", "country": "US", "state": "NY", "display_address": ["351 Myrtle Ave", "New York, NY 11205"]}, "phone": "+13478897210", "display_phone": "(347) 889-7210", "distance": 1625.504835143115}, {"id": "OLi1M1D3r9DDv8kbfQV5SA", "alias": "anything-at-all-new-york-2", "name": "Anything At All", "image_url": "https://s3-media3.fl.yelpcdn.com/bphoto/x2p0NaiidQOWHYdv7CUbOg/o.jpg", "is_closed": false, "url": "https://www.yelp.com/biz/anything-at-all-new-york-2?adjust_creative=mOQnsCAQCU1OEchZbfnYAg&utm_campaign=yelp_api_v3&utm_medium=api_v3_business_search&utm_source=mOQnsCAQCU1OEchZbfnYAg", "review_count": 33, "categories": [{"alias": "newamerican", "title": "American (New)"}], "rating": 3.5, "coordinates": {"latitude": 40.7562, "longitude": -73.95504}, "transactions": [], "price": "$$", "location": {"address1": "22 N Loop Rd", "address2": "", "address3": null, "city": "New York", "zip_code": "10044", "country": "US", "state": "NY", "display_address": ["22 N Loop Rd", "New York, NY 10044"]}, "phone": "+19294474717", "display_phone": "(929) 447-4717", "distance": 5819.550385807865}, {"id": "VNseu9VC1cKfwn5q3Ze_1w", "alias": "lucky-paan-new-york", "name": "Lucky Paan", "image_url": "https://s3-media3.fl.yelpcdn.com/bphoto/Xfwy3PvkVoEvlYScDDnwuA/o.jpg", "is_closed": false, "url": "https://www.yelp.com/biz/lucky-paan-new-york?adjust_creative=mOQnsCAQCU1OEchZbfnYAg&utm_campaign=yelp_api_v3&utm_medium=api_v3_business_search&utm_source=mOQnsCAQCU1OEchZbfnYAg", "review_count": 13, "categories": [{"alias": "gourmet", "title": "Specialty Food"}], "rating": 5.0, "coordinates": {"latitude": 40.7421500176917, "longitude": -73.982722}, "transactions": [], "price": "$", "location": {"address1": "150 East 28th St", "address2": "", "address3": "", "city": "New York", "zip_code": "10016", "country": "US", "state": "NY", "display_address": ["150 East 28th St", "New York, NY 10016"]}, "phone": "+17182004242", "display_phone": "(718) 200-4242", "distance": 3922.306284244015}, {"id": "-CR-a1EGcaw7c9Qp2HsygA", "alias": "erotic-bakery-new-york-6", "name": "Erotic Bakery", "image_url": "https://s3-media1.fl.yelpcdn.com/bphoto/glGPQH53Bj4S9t0KsB4Obg/o.jpg", "is_closed": false, "url": "https://www.yelp.com/biz/erotic-bakery-new-york-6?adjust_creative=mOQnsCAQCU1OEchZbfnYAg&utm_campaign=yelp_api_v3&utm_medium=api_v3_business_search&utm_source=mOQnsCAQCU1OEchZbfnYAg", "review_count": 87, "categories": [{"alias": "bakeries", "title": "Bakeries"}], "rating": 4.0, "coordinates": {"latitude": 40.72506, "longitude": -73.84549}, "transactions": [], "price": "$$$", "location": {"address1": "", "address2": "", "address3": "", "city": "New York", "zip_code": "11375", "country": "US", "state": "NY", "display_address": ["New York, NY 11375"]}, "phone": "+17188867623", "display_phone": "(718) 886-7623", "distance": 11413.662668111228}, {"id": "FwUeXKY9oGSYYg2M3ZdMuQ", "alias": "noz-17-new-york-4", "name": "Noz 17", "image_url": "https://s3-media1.fl.yelpcdn.com/bphoto/H67xKKCTG8DUu9orAU9XjA/o.jpg", "is_closed": false, "url": "https://www.yelp.com/biz/noz-17-new-york-4?adjust_creative=mOQnsCAQCU1OEchZbfnYAg&utm_campaign=yelp_api_v3&utm_medium=api_v3_business_search&utm_source=mOQnsCAQCU1OEchZbfnYAg", "review_count": 7, "categories": [{"alias": "sushi", "title": "Sushi Bars"}, {"alias": "japanese", "title": "Japanese"}], "rating": 5.0, "coordinates": {"latitude": 40.74387, "longitude": -74.00658}, "transactions": [], "location": {"address1": "458 W 17th St", "address2": "", "address3": null, "city": "New York", "zip_code": "10011", "country": "US", "state": "NY", "display_address": ["458 W 17th St", "New York, NY 10011"]}, "phone": "", "display_phone": "", "distance": 4702.025288600675}, {"id": "cRsIsiuoV11zX8oLY8brhQ", "alias": "dumboluv-brooklyn-3", "name": "DumboLuv", "image_url": "https://s3-media3.fl.yelpcdn.com/bphoto/hHjc3vsbC8C6CMWhVzYcDw/o.jpg", "is_closed": false, "url": "https://www.yelp.com/biz/dumboluv-brooklyn-3?adjust_creative=mOQnsCAQCU1OEchZbfnYAg&utm_campaign=yelp_api_v3&utm_medium=api_v3_business_search&utm_source=mOQnsCAQCU1OEchZbfnYAg", "review_count": 9, "categories": [{"alias": "newamerican", "title": "American (New)"}, {"alias": "wine_bars", "title": "Wine Bars"}], "rating": 4.5, "coordinates": {"latitude": 40.70327, "longitude": -73.98676}, "transactions": ["delivery"], "location": {"address1": "54 Jay St", "address2": null, "address3": "Olympia Wine Bar", "city": "Brooklyn", "zip_code": "11201", "country": "US", "state": "NY", "display_address": ["54 Jay St", "Olympia Wine Bar", "Brooklyn, NY 11201"]}, "phone": "", "display_phone": "", "distance": 759.9175186186626}, {"id": "E7q1Qf6380N_aMqz28EgNw", "alias": "duckedup-new-york", "name": "Duckedup", "image_url": "https://s3-media3.fl.yelpcdn.com/bphoto/fhQqFwNyMMVJ9H1xsFdqXQ/o.jpg", "is_closed": false, "url": "https://www.yelp.com/biz/duckedup-new-york?adjust_creative=mOQnsCAQCU1OEchZbfnYAg&utm_campaign=yelp_api_v3&utm_medium=api_v3_business_search&utm_source=mOQnsCAQCU1OEchZbfnYAg", "review_count": 5, "categories": [{"alias": "dimsum", "title": "Dim Sum"}], "rating": 4.5, "coordinates": {"latitude": 40.7205, "longitude": -73.98826}, "transactions": [], "location": {"address1": "139 Ludlow St", "address2": "Ludlow House", "address3": null, "city": "New York", "zip_code": "10002", "country": "US", "state": "NY", "display_address": ["139 Ludlow St", "Ludlow House", "New York, NY 10002"]}, "phone": "+16462536100", "display_phone": "(646) 253-6100", "distance": 1695.2974730985711}, {"id": "bCJ5s5juhA_VJcUX4nCzeA", "alias": "blue-sky-deli-new-york-2", "name": "Blue Sky Deli", "image_url": "https://s3-media2.fl.yelpcdn.com/bphoto/jKFtTt_2iOSuon-T6KeH6Q/o.jpg", "is_closed": false, "url": "https://www.yelp.com/biz/blue-sky-deli-new-york-2?adjust_creative=mOQnsCAQCU1OEchZbfnYAg&utm_campaign=yelp_api_v3&utm_medium=api_v3_business_search&utm_source=mOQnsCAQCU1OEchZbfnYAg", "review_count": 86, "categories": [{"alias": "delis", "title": "Delis"}, {"alias": "grocery", "title": "Grocery"}, {"alias": "sandwiches", "title": "Sandwiches"}], "rating": 4.5, "coordinates": {"latitude": 40.7922, "longitude": -73.93854}, "transactions": [], "price": "$", "location": {"address1": "2135 1st Ave 110th St", "address2": "", "address3": "", "city": "New York", "zip_code": "10029", "country": "US", "state": "NY", "display_address": ["2135 1st Ave 110th St", "New York, NY 10029"]}, "phone": "+16466827488", "display_phone": "(646) 682-7488", "distance": 10075.020458667712}, {"id": "FKLNX5j_byvdkliG0-ygCA", "alias": "niche-new-york-3", "name": "Niche", "image_url": "https://s3-media2.fl.yelpcdn.com/bphoto/PmjZsybg5Lc8NHDdXFFwWQ/o.jpg", "is_closed": false, "url": "https://www.yelp.com/biz/niche-new-york-3?adjust_creative=mOQnsCAQCU1OEchZbfnYAg&utm_campaign=yelp_api_v3&utm_medium=api_v3_business_search&utm_source=mOQnsCAQCU1OEchZbfnYAg", "review_count": 106, "categories": [{"alias": "japanese", "title": "Japanese"}], "rating": 4.0, "coordinates": {"latitude": 40.71786, "longitude": -73.98518}, "transactions": [], "price": "$$", "location": {"address1": "172 Delancey St", "address2": null, "address3": null, "city": "New York", "zip_code": "10002", "country": "US", "state": "NY", "display_address": ["172 Delancey St", "New York, NY 10002"]}, "phone": "+12126141810", "display_phone": "(212) 614-1810", "distance": 1305.2287599829672}, {"id": "-7GJnpXKl0gZCrz7IuU-Gg", "alias": "pjs-on-the-bay-brooklyn", "name": "PJs On The Bay", "image_url": "https://s3-media2.fl.yelpcdn.com/bphoto/vEA_2kcaAlvANVnP0LQW1w/o.jpg", "is_closed": false, "url": "https://www.yelp.com/biz/pjs-on-the-bay-brooklyn?adjust_creative=mOQnsCAQCU1OEchZbfnYAg&utm_campaign=yelp_api_v3&utm_medium=api_v3_business_search&utm_source=mOQnsCAQCU1OEchZbfnYAg", "review_count": 4, "categories": [{"alias": "caribbean", "title": "Caribbean"}], "rating": 4.0, "coordinates": {"latitude": 40.59901663470185, "longitude": -73.9370201965315}, "transactions": [], "location": {"address1": "3041 Ave V", "address2": null, "address3": "", "city": "Brooklyn", "zip_code": "11229", "country": "US", "state": "NY", "display_address": ["3041 Ave V", "Brooklyn, NY 11229"]}, "phone": "+13474621747", "display_phone": "(347) 462-1747", "distance": 12520.650907249881}, {"id": "y2dSu-qwp1BmLfQRn_c-1Q", "alias": "bar-lula-new-york", "name": "Bar Lula", "image_url": "https://s3-media2.fl.yelpcdn.com/bphoto/J4C2_YmJf33QCYVkW-VvZQ/o.jpg", "is_closed": false, "url": "https://www.yelp.com/biz/bar-lula-new-york?adjust_creative=mOQnsCAQCU1OEchZbfnYAg&utm_campaign=yelp_api_v3&utm_medium=api_v3_business_search&utm_source=mOQnsCAQCU1OEchZbfnYAg", "review_count": 46, "categories": [{"alias": "cocktailbars", "title": "Cocktail Bars"}, {"alias": "mexican", "title": "Mexican"}, {"alias": "latin", "title": "Latin American"}], "rating": 4.5, "coordinates": {"latitude": 40.72743, "longitude": -73.98521}, "transactions": [], "location": {"address1": "132 1st Ave", "address2": null, "address3": "", "city": "New York", "zip_code": "10009", "country": "US", "state": "NY", "display_address": ["132 1st Ave", "New York, NY 10009"]}, "phone": "+12127277900", "display_phone": "(212) 727-7900", "distance": 2326.351620050617}, {"id": "LDScBEu3splSQlhGBEH2hg", "alias": "bao-by-kaya-new-york-4", "name": "Bao by Kaya", "image_url": "https://s3-media3.fl.yelpcdn.com/bphoto/nS60sFysLMyJAyMdKvLG-A/o.jpg", "is_closed": false, "url": "https://www.yelp.com/biz/bao-by-kaya-new-york-4?adjust_creative=mOQnsCAQCU1OEchZbfnYAg&utm_campaign=yelp_api_v3&utm_medium=api_v3_business_search&utm_source=mOQnsCAQCU1OEchZbfnYAg", "review_count": 216, "categories": [{"alias": "taiwanese", "title": "Taiwanese"}, {"alias": "coffee", "title": "Coffee & Tea"}, {"alias": "asianfusion", "title": "Asian Fusion"}], "rating": 4.0, "coordinates": {"latitude": 40.7569200941962, "longitude": -73.9723208919168}, "transactions": [], "price": "$$", "location": {"address1": "570 Lexington Ave", "address2": "", "address3": null, "city": "New York", "zip_code": "10022", "country": "US", "state": "NY", "display_address": ["570 Lexington Ave", "New York, NY 10022"]}, "phone": "+19294219987", "display_phone": "(929) 421-9987", "distance": 5583.388042356552}, {"id": "d7X3d_siRqmj88ZZerXhsw", "alias": "noz-market-new-york", "name": "Noz Market", "image_url": "https://s3-media1.fl.yelpcdn.com/bphoto/tzpantRApnMnAQGxUZrYCg/o.jpg", "is_closed": false, "url": "https://www.yelp.com/biz/noz-market-new-york?adjust_creative=mOQnsCAQCU1OEchZbfnYAg&utm_campaign=yelp_api_v3&utm_medium=api_v3_business_search&utm_source=mOQnsCAQCU1OEchZbfnYAg", "review_count": 41, "categories": [{"alias": "japanese", "title": "Japanese"}, {"alias": "sushi", "title": "Sushi Bars"}], "rating": 4.0, "coordinates": {"latitude": 40.77382345943564, "longitude": -73.9579557}, "transactions": ["delivery"], "location": {"address1": "1374 3rd Ave", "address2": "", "address3": null, "city": "New York", "zip_code": "10075", "country": "US", "state": "NY", "display_address": ["1374 3rd Ave", "New York, NY 10075"]}, "phone": "+19173381792", "display_phone": "(917) 338-1792", "distance": 7645.099182223606}, {"id": "PWDSfW-c8198UegLtaTR1A", "alias": "russ-and-daughters-brooklyn-brooklyn", "name": "Russ & Daughters - Brooklyn", "image_url": "https://s3-media3.fl.yelpcdn.com/bphoto/bn6q8egRQ4Lj7FYI4WV61g/o.jpg", "is_closed": false, "url": "https://www.yelp.com/biz/russ-and-daughters-brooklyn-brooklyn?adjust_creative=mOQnsCAQCU1OEchZbfnYAg&utm_campaign=yelp_api_v3&utm_medium=api_v3_business_search&utm_source=mOQnsCAQCU1OEchZbfnYAg", "review_count": 100, "categories": [{"alias": "bagels", "title": "Bagels"}, {"alias": "bakeries", "title": "Bakeries"}, {"alias": "salad", "title": "Salad"}], "rating": 3.0, "coordinates": {"latitude": 40.69799, "longitude": -73.97116}, "transactions": ["delivery"], "price": "$$", "location": {"address1": "141 Flushing Ave", "address2": "Bldg 77", "address3": "", "city": "Brooklyn", "zip_code": "11205", "country": "US", "state": "NY", "display_address": ["141 Flushing Ave", "Bldg 77", "Brooklyn, NY 11205"]}, "phone": "+12124754880", "display_phone": "(212) 475-4880", "distance": 1153.3023395334803}, {"id": "pou1-d7PENs6AD4mnt9P4g", "alias": "sushi-w-new-york", "name": "Sushi W", "image_url": "https://s3-media3.fl.yelpcdn.com/bphoto/hxguGJK1M2szWEm6Ikh4oA/o.jpg", "is_closed": false, "url": "https://www.yelp.com/biz/sushi-w-new-york?adjust_creative=mOQnsCAQCU1OEchZbfnYAg&utm_campaign=yelp_api_v3&utm_medium=api_v3_business_search&utm_source=mOQnsCAQCU1OEchZbfnYAg", "review_count": 147, "categories": [{"alias": "japanese", "title": "Japanese"}, {"alias": "sushi", "title": "Sushi Bars"}], "rating": 4.5, "coordinates": {"latitude": 40.79837, "longitude": -73.96941}, "transactions": [], "location": {"address1": "2673 Broadway", "address2": "", "address3": null, "city": "New York", "zip_code": "10025", "country": "US", "state": "NY", "display_address": ["2673 Broadway", "New York, NY 10025"]}, "phone": "+19173189739", "display_phone": "(917) 318-9739", "distance": 10204.969653239768}, {"id": "cZAwWH1ZmmvqjjlEOvsIxA", "alias": "los-amigos-chimichurry-corona", "name": "Los Amigos Chimichurry", "image_url": "https://s3-media2.fl.yelpcdn.com/bphoto/A5JgshEKN73ETfB63r9M_A/o.jpg", "is_closed": false, "url": "https://www.yelp.com/biz/los-amigos-chimichurry-corona?adjust_creative=mOQnsCAQCU1OEchZbfnYAg&utm_campaign=yelp_api_v3&utm_medium=api_v3_business_search&utm_source=mOQnsCAQCU1OEchZbfnYAg", "review_count": 81, "categories": [{"alias": "foodtrucks", "title": "Food Trucks"}, {"alias": "colombian", "title": "Colombian"}], "rating": 4.0, "coordinates": {"latitude": 40.752095004541, "longitude": -73.8535914288361}, "transactions": [], "price": "$", "location": {"address1": "Between 111th & 108th On Roosevelt Ave", "address2": null, "address3": "", "city": "Corona", "zip_code": "11368", "country": "US", "state": "NY", "display_address": ["Between 111th & 108th On Roosevelt Ave", "Corona, NY 11368"]}, "phone": "+17189388569", "display_phone": "(718) 938-8569", "distance": 11711.962057410445}, {"id": "1lPcNVCHCNE6KbQJzbguzQ", "alias": "cool-world-brooklyn", "name": "Cool World", "image_url": "https://s3-media4.fl.yelpcdn.com/bphoto/R_YfzYuE4vM6zb2iDAh4SQ/o.jpg", "is_closed": false, "url": "https://www.yelp.com/biz/cool-world-brooklyn?adjust_creative=mOQnsCAQCU1OEchZbfnYAg&utm_campaign=yelp_api_v3&utm_medium=api_v3_business_search&utm_source=mOQnsCAQCU1OEchZbfnYAg", "review_count": 20, "categories": [{"alias": "newamerican", "title": "American (New)"}], "rating": 4.5, "coordinates": {"latitude": 40.72355, "longitude": -73.95182}, "transactions": [], "location": {"address1": "905 Lorimer St", "address2": "", "address3": null, "city": "Brooklyn", "zip_code": "11222", "country": "US", "state": "NY", "display_address": ["905 Lorimer St", "Brooklyn, NY 11222"]}, "phone": "", "display_phone": "", "distance": 2942.0314560055353}, {"id": "JAL8di-znskAHDTrLIdhfg", "alias": "for-all-things-good-brooklyn", "name": "For All Things Good", "image_url": "https://s3-media2.fl.yelpcdn.com/bphoto/tETAp07NCwgN6yvJnezimQ/o.jpg", "is_closed": false, "url": "https://www.yelp.com/biz/for-all-things-good-brooklyn?adjust_creative=mOQnsCAQCU1OEchZbfnYAg&utm_campaign=yelp_api_v3&utm_medium=api_v3_business_search&utm_source=mOQnsCAQCU1OEchZbfnYAg", "review_count": 45, "categories": [{"alias": "cafes", "title": "Cafes"}, {"alias": "mexican", "title": "Mexican"}], "rating": 4.5, "coordinates": {"latitude": 40.687630013555, "longitude": -73.9568200707436}, "transactions": ["delivery"], "price": "$$", "location": {"address1": "343 Franklin Ave", "address2": "", "address3": null, "city": "Brooklyn", "zip_code": "11238", "country": "US", "state": "NY", "display_address": ["343 Franklin Ave", "Brooklyn, NY 11238"]}, "phone": "", "display_phone": "", "distance": 2860.75822783914}, {"id": "affWh2WFSMayL04l9lr47g", "alias": "roberta-s-brooklyn", "name": "Roberta\u2019s", "image_url": "https://s3-media1.fl.yelpcdn.com/bphoto/rdK-sou4FgwoUAy1FFRBCw/o.jpg", "is_closed": false, "url": "https://www.yelp.com/biz/roberta-s-brooklyn?adjust_creative=mOQnsCAQCU1OEchZbfnYAg&utm_campaign=yelp_api_v3&utm_medium=api_v3_business_search&utm_source=mOQnsCAQCU1OEchZbfnYAg", "review_count": 11, "categories": [{"alias": "pizza", "title": "Pizza"}], "rating": 4.0, "coordinates": {"latitude": 40.71613781459604, "longitude": -73.9665876020738}, "transactions": [], "location": {"address1": "6 Grand St", "address2": "", "address3": null, "city": "Brooklyn", "zip_code": "11249", "country": "US", "state": "NY", "display_address": ["6 Grand St", "Brooklyn, NY 11249"]}, "phone": "", "display_phone": "", "distance": 1471.4623331440557}, {"id": "Ei5qjq0qmfNLkdVoO-S5Tw", "alias": "raffettos-new-york-2", "name": "Raffetto's", "image_url": "https://s3-media2.fl.yelpcdn.com/bphoto/jJX8oWgdANZ8uDAsHfvt9Q/o.jpg", "is_closed": false, "url": "https://www.yelp.com/biz/raffettos-new-york-2?adjust_creative=mOQnsCAQCU1OEchZbfnYAg&utm_campaign=yelp_api_v3&utm_medium=api_v3_business_search&utm_source=mOQnsCAQCU1OEchZbfnYAg", "review_count": 251, "categories": [{"alias": "gourmet", "title": "Specialty Food"}], "rating": 4.5, "coordinates": {"latitude": 40.72816, "longitude": -74.00172}, "transactions": ["delivery"], "price": "$", "location": {"address1": "144 W Houston St", "address2": "", "address3": "", "city": "New York", "zip_code": "10012", "country": "US", "state": "NY", "display_address": ["144 W Houston St", "New York, NY 10012"]}, "phone": "+12127771261", "display_phone": "(212) 777-1261", "distance": 3025.23830295351}], "businesses_atlanta_panda express": [{"id": "7-5uyxn3aErO961QwdFrXA", "alias": "panda-express-atlanta-16", "name": "Panda Express", "image_url": "https://s3-media4.fl.yelpcdn.com/bphoto/LeGLofCAf55tTQUxzX5YRg/o.jpg", "is_closed": false, "url": "https://www.yelp.com/biz/panda-express-atlanta-16?adjust_creative=mOQnsCAQCU1OEchZbfnYAg&utm_campaign=yelp_api_v3&utm_medium=api_v3_business_search&utm_source=mOQnsCAQCU1OEchZbfnYAg", "review_count": 14, "categories": [{"alias": "hotdogs", "title": "Fast Food"}, {"alias": "chinese", "title": "Chinese"}], "rating": 3.5, "coordinates": {"latitude": 33.77365700000007, "longitude": -84.39818798220894}, "transactions": [], "price": "$", "location": {"address1": "350 Ferst Drive Nw", "address2": "", "address3": "", "city": "Atlanta", "zip_code": "30332", "country": "US", "state": "GA", "display_address": ["350 Ferst Drive Nw", "Atlanta, GA 30332"]}, "phone": "+14044809177", "display_phone": "(404) 480-9177", "distance": 4949.505166134662}, {"id": "z5wCGnWPQ2orwAS1uY84rw", "alias": "panda-express-atlanta-18", "name": "Panda Express", "image_url": "https://s3-media2.fl.yelpcdn.com/bphoto/71TPONQ0Sm8sdVs4ltBS_A/o.jpg", "is_closed": false, "url": "https://www.yelp.com/biz/panda-express-atlanta-18?adjust_creative=mOQnsCAQCU1OEchZbfnYAg&utm_campaign=yelp_api_v3&utm_medium=api_v3_business_search&utm_source=mOQnsCAQCU1OEchZbfnYAg", "review_count": 5, "categories": [{"alias": "chinese", "title": "Chinese"}, {"alias": "hotdogs", "title": "Fast Food"}], "rating": 2.0, "coordinates": {"latitude": 33.75273517, "longitude": -84.38493117}, "transactions": ["delivery"], "location": {"address1": "55 Gilmer Street Se", "address2": null, "address3": null, "city": "Atlanta", "zip_code": "30302", "country": "US", "state": "GA", "display_address": ["55 Gilmer Street Se", "Atlanta, GA 30302"]}, "phone": "+16788940866", "display_phone": "(678) 894-0866", "distance": 6811.916208388068}, {"id": "ApmYf0k0w4IuT_u79NlBVw", "alias": "panda-express-sandy-springs", "name": "Panda Express", "image_url": "https://s3-media1.fl.yelpcdn.com/bphoto/L5NXrX7plHyHYVQocUKFdg/o.jpg", "is_closed": false, "url": "https://www.yelp.com/biz/panda-express-sandy-springs?adjust_creative=mOQnsCAQCU1OEchZbfnYAg&utm_campaign=yelp_api_v3&utm_medium=api_v3_business_search&utm_source=mOQnsCAQCU1OEchZbfnYAg", "review_count": 60, "categories": [{"alias": "chinese", "title": "Chinese"}, {"alias": "hotdogs", "title": "Fast Food"}], "rating": 2.5, "coordinates": {"latitude": 33.906640854588304, "longitude": -84.37896673791882}, "transactions": ["pickup", "delivery"], "price": "$", "location": {"address1": "5600 Roswell Rd", "address2": "Ste B120", "address3": "", "city": "Sandy Springs", "zip_code": "30358", "country": "US", "state": "GA", "display_address": ["5600 Roswell Rd", "Ste B120", "Sandy Springs, GA 30358"]}, "phone": "+14043037367", "display_phone": "(404) 303-7367", "distance": 10400.3739047948}, {"id": "6Bej8HMfiS37Oy7frG9Uhg", "alias": "panda-express-tucker", "name": "Panda Express", "image_url": "https://s3-media4.fl.yelpcdn.com/bphoto/sXf3dvHB7IYeHoUISPHapg/o.jpg", "is_closed": false, "url": "https://www.yelp.com/biz/panda-express-tucker?adjust_creative=mOQnsCAQCU1OEchZbfnYAg&utm_campaign=yelp_api_v3&utm_medium=api_v3_business_search&utm_source=mOQnsCAQCU1OEchZbfnYAg", "review_count": 61, "categories": [{"alias": "chinese", "title": "Chinese"}, {"alias": "hotdogs", "title": "Fast Food"}], "rating": 3.0, "coordinates": {"latitude": 33.846089, "longitude": -84.254974}, "transactions": ["pickup", "delivery"], "price": "$", "location": {"address1": "4004 Lavista Road", "address2": "", "address3": "", "city": "Tucker", "zip_code": "30084", "country": "US", "state": "GA", "display_address": ["4004 Lavista Road", "Tucker, GA 30084"]}, "phone": "+17704917988", "display_phone": "(770) 491-7988", "distance": 11553.434532682584}, {"id": "LQPi5Wr18G0iK0uMUe82pw", "alias": "panda-express-smyrna-2", "name": "Panda Express", "image_url": "https://s3-media3.fl.yelpcdn.com/bphoto/wlZ-uwZ8EgCHT5YTqP5LhA/o.jpg", "is_closed": false, "url": "https://www.yelp.com/biz/panda-express-smyrna-2?adjust_creative=mOQnsCAQCU1OEchZbfnYAg&utm_campaign=yelp_api_v3&utm_medium=api_v3_business_search&utm_source=mOQnsCAQCU1OEchZbfnYAg", "review_count": 70, "categories": [{"alias": "chinese", "title": "Chinese"}, {"alias": "hotdogs", "title": "Fast Food"}], "rating": 2.5, "coordinates": {"latitude": 33.883518, "longitude": -84.475148}, "transactions": ["pickup", "delivery"], "price": "$", "location": {"address1": "2654 Spring Road", "address2": null, "address3": null, "city": "Smyrna", "zip_code": "30080", "country": "US", "state": "GA", "display_address": ["2654 Spring Road", "Smyrna, GA 30080"]}, "phone": "+17704310261", "display_phone": "(770) 431-0261", "distance": 12207.031378669963}, {"id": "07AVTBarAj1pZe4o519_Ww", "alias": "panda-express-dunwoody", "name": "Panda Express", "image_url": "https://s3-media2.fl.yelpcdn.com/bphoto/JCB6pzytQexDJ0v6i6Vwyg/o.jpg", "is_closed": false, "url": "https://www.yelp.com/biz/panda-express-dunwoody?adjust_creative=mOQnsCAQCU1OEchZbfnYAg&utm_campaign=yelp_api_v3&utm_medium=api_v3_business_search&utm_source=mOQnsCAQCU1OEchZbfnYAg", "review_count": 11, "categories": [{"alias": "chinese", "title": "Chinese"}, {"alias": "hotdogs", "title": "Fast Food"}], "rating": 2.5, "coordinates": {"latitude": 33.93276442428624, "longitude": -84.337929371913}, "transactions": ["pickup", "delivery"], "price": "$$", "location": {"address1": "4724 Ashford Dunwoody Rd", "address2": "Ste 510", "address3": null, "city": "Dunwoody", "zip_code": "30338", "country": "US", "state": "GA", "display_address": ["4724 Ashford Dunwoody Rd", "Ste 510", "Dunwoody, GA 30338"]}, "phone": "+17707972000", "display_phone": "(770) 797-2000", "distance": 13695.914845269854}, {"id": "NAMrsj9To1T9jFVyGDHIRw", "alias": "panda-express-marietta", "name": "Panda Express", "image_url": "https://s3-media1.fl.yelpcdn.com/bphoto/0Mpuvwsk5p7tJ0tYjfvi6A/o.jpg", "is_closed": false, "url": "https://www.yelp.com/biz/panda-express-marietta?adjust_creative=mOQnsCAQCU1OEchZbfnYAg&utm_campaign=yelp_api_v3&utm_medium=api_v3_business_search&utm_source=mOQnsCAQCU1OEchZbfnYAg", "review_count": 63, "categories": [{"alias": "chinese", "title": "Chinese"}, {"alias": "hotdogs", "title": "Fast Food"}], "rating": 2.5, "coordinates": {"latitude": 33.90055, "longitude": -84.47798}, "transactions": ["pickup", "delivery"], "price": "$", "location": {"address1": "2580 Windy Hill Road Suite 600", "address2": null, "address3": null, "city": "Marietta", "zip_code": "30067", "country": "US", "state": "GA", "display_address": ["2580 Windy Hill Road Suite 600", "Marietta, GA 30067"]}, "phone": "+17706440243", "display_phone": "(770) 644-0243", "distance": 13710.483971625285}, {"id": "p4CWHGcqTo4yXl5PW0i1rw", "alias": "panda-express-stone-mountain", "name": "Panda Express", "image_url": "https://s3-media2.fl.yelpcdn.com/bphoto/Vo_ndGhJm8yufKgGQjinvw/o.jpg", "is_closed": false, "url": "https://www.yelp.com/biz/panda-express-stone-mountain?adjust_creative=mOQnsCAQCU1OEchZbfnYAg&utm_campaign=yelp_api_v3&utm_medium=api_v3_business_search&utm_source=mOQnsCAQCU1OEchZbfnYAg", "review_count": 23, "categories": [{"alias": "hotdogs", "title": "Fast Food"}, {"alias": "chinese", "title": "Chinese"}], "rating": 2.5, "coordinates": {"latitude": 33.803043, "longitude": -84.19329}, "transactions": ["pickup", "delivery"], "price": "$", "location": {"address1": "6006 Memorial Drive", "address2": "", "address3": "", "city": "Stone Mountain", "zip_code": "30083", "country": "US", "state": "GA", "display_address": ["6006 Memorial Drive", "Stone Mountain, GA 30083"]}, "phone": "+14042949889", "display_phone": "(404) 294-9889", "distance": 16694.266482806095}, {"id": "4zFhYyNVqvGaZEei_UVpTg", "alias": "panda-express-marietta-2", "name": "Panda Express", "image_url": "https://s3-media2.fl.yelpcdn.com/bphoto/6VnL0P6w6JV3N_8ExZlI9g/o.jpg", "is_closed": false, "url": "https://www.yelp.com/biz/panda-express-marietta-2?adjust_creative=mOQnsCAQCU1OEchZbfnYAg&utm_campaign=yelp_api_v3&utm_medium=api_v3_business_search&utm_source=mOQnsCAQCU1OEchZbfnYAg", "review_count": 39, "categories": [{"alias": "chinese", "title": "Chinese"}, {"alias": "hotdogs", "title": "Fast Food"}], "rating": 3.0, "coordinates": {"latitude": 33.98474898062447, "longitude": -84.42631700215536}, "transactions": ["pickup", "delivery"], "price": "$$", "location": {"address1": "4275 Ne Roswell Rd.", "address2": null, "address3": null, "city": "Marietta", "zip_code": "30062", "country": "US", "state": "GA", "display_address": ["4275 Ne Roswell Rd.", "Marietta, GA 30062"]}, "phone": "+17705096708", "display_phone": "(770) 509-6708", "distance": 19684.0626052729}, {"id": "xj20tspcCMOKRLqXPoN_Vg", "alias": "panda-express-atlanta-17", "name": "Panda Express", "image_url": "https://s3-media3.fl.yelpcdn.com/bphoto/SNG8Xmx8Cc8rEgMtxDYcXQ/o.jpg", "is_closed": false, "url": "https://www.yelp.com/biz/panda-express-atlanta-17?adjust_creative=mOQnsCAQCU1OEchZbfnYAg&utm_campaign=yelp_api_v3&utm_medium=api_v3_business_search&utm_source=mOQnsCAQCU1OEchZbfnYAg", "review_count": 58, "categories": [{"alias": "chinese", "title": "Chinese"}, {"alias": "hotdogs", "title": "Fast Food"}], "rating": 2.5, "coordinates": {"latitude": 33.6409058140773, "longitude": -84.425243139267}, "transactions": ["pickup", "delivery"], "price": "$", "location": {"address1": "12700 Spine Road Sw", "address2": "#E-F4", "address3": "", "city": "Atlanta", "zip_code": "30354", "country": "US", "state": "GA", "display_address": ["12700 Spine Road Sw", "#E-F4", "Atlanta, GA 30354"]}, "phone": "+14043050891", "display_phone": "(404) 305-0891", "distance": 19745.360581813467}, {"id": "p8l1XDoX1uR2c3jGvP0bGQ", "alias": "panda-express-norcross", "name": "Panda Express", "image_url": "https://s3-media2.fl.yelpcdn.com/bphoto/qrGfhxmMoilbun8iW4KK5w/o.jpg", "is_closed": false, "url": "https://www.yelp.com/biz/panda-express-norcross?adjust_creative=mOQnsCAQCU1OEchZbfnYAg&utm_campaign=yelp_api_v3&utm_medium=api_v3_business_search&utm_source=mOQnsCAQCU1OEchZbfnYAg", "review_count": 60, "categories": [{"alias": "chinese", "title": "Chinese"}, {"alias": "hotdogs", "title": "Fast Food"}], "rating": 2.5, "coordinates": {"latitude": 33.95275277317133, "longitude": -84.23334487657314}, "transactions": ["pickup", "delivery"], "price": "$", "location": {"address1": "3200 Holcomb Bridge Rd", "address2": "Ste 650A", "address3": "", "city": "Norcross", "zip_code": "30092", "country": "US", "state": "GA", "display_address": ["3200 Holcomb Bridge Rd", "Ste 650A", "Norcross, GA 30092"]}, "phone": "+16789690028", "display_phone": "(678) 969-0028", "distance": 20209.93248377862}, {"id": "V59w9Ykgsdh_lEGB76t2xw", "alias": "panda-express-east-point-2", "name": "Panda Express", "image_url": "https://s3-media1.fl.yelpcdn.com/bphoto/BXHw1Mzesk2fYtd17mLthA/o.jpg", "is_closed": false, "url": "https://www.yelp.com/biz/panda-express-east-point-2?adjust_creative=mOQnsCAQCU1OEchZbfnYAg&utm_campaign=yelp_api_v3&utm_medium=api_v3_business_search&utm_source=mOQnsCAQCU1OEchZbfnYAg", "review_count": 100, "categories": [{"alias": "chinese", "title": "Chinese"}, {"alias": "hotdogs", "title": "Fast Food"}], "rating": 2.0, "coordinates": {"latitude": 33.6575405934804, "longitude": -84.5005387470824}, "transactions": ["pickup", "delivery"], "price": "$", "location": {"address1": "3360 Shelby Lane Suite #1060", "address2": "", "address3": "", "city": "East Point", "zip_code": "30344", "country": "US", "state": "GA", "display_address": ["3360 Shelby Lane Suite #1060", "East Point, GA 30344"]}, "phone": "+14046299060", "display_phone": "(404) 629-9060", "distance": 20913.175045599142}, {"id": "kDwLxrC8Dj2RRppmO5CReg", "alias": "panda-express-alpharetta-2", "name": "Panda Express", "image_url": "https://s3-media2.fl.yelpcdn.com/bphoto/juRAdsvtVwx63NNz8Z8t6g/o.jpg", "is_closed": false, "url": "https://www.yelp.com/biz/panda-express-alpharetta-2?adjust_creative=mOQnsCAQCU1OEchZbfnYAg&utm_campaign=yelp_api_v3&utm_medium=api_v3_business_search&utm_source=mOQnsCAQCU1OEchZbfnYAg", "review_count": 37, "categories": [{"alias": "chinese", "title": "Chinese"}, {"alias": "hotdogs", "title": "Fast Food"}], "rating": 2.5, "coordinates": {"latitude": 33.9999204235268, "longitude": -84.2838562557467}, "transactions": ["pickup", "delivery"], "price": "$", "location": {"address1": "2622 Holcomb Bridge Road", "address2": "SUITE 140", "address3": null, "city": "Alpharetta", "zip_code": "30022", "country": "US", "state": "GA", "display_address": ["2622 Holcomb Bridge Road", "SUITE 140", "Alpharetta, GA 30022"]}, "phone": "+17709927441", "display_phone": "(770) 992-7441", "distance": 22352.80455513317}, {"id": "YM0y_S_LRx6qg_S66eNqOg", "alias": "panda-express-lilburn", "name": "Panda Express", "image_url": "https://s3-media1.fl.yelpcdn.com/bphoto/LJ3MmFiFWpqFkhVgPHWwkg/o.jpg", "is_closed": false, "url": "https://www.yelp.com/biz/panda-express-lilburn?adjust_creative=mOQnsCAQCU1OEchZbfnYAg&utm_campaign=yelp_api_v3&utm_medium=api_v3_business_search&utm_source=mOQnsCAQCU1OEchZbfnYAg", "review_count": 43, "categories": [{"alias": "chinese", "title": "Chinese"}, {"alias": "hotdogs", "title": "Fast Food"}], "rating": 2.0, "coordinates": {"latitude": 33.8269004821777, "longitude": -84.0973052978516}, "transactions": ["pickup", "delivery"], "price": "$", "location": {"address1": "4875 Stone Mountain Hwy", "address2": null, "address3": null, "city": "Lilburn", "zip_code": "30047", "country": "US", "state": "GA", "display_address": ["4875 Stone Mountain Hwy", "Lilburn, GA 30047"]}, "phone": "+17709720575", "display_phone": "(770) 972-0575", "distance": 25569.31558518468}, {"id": "19LwNuaI2yWXUCLaGl1mBg", "alias": "panda-express-marietta-4", "name": "Panda Express", "image_url": "https://s3-media4.fl.yelpcdn.com/bphoto/9tfiE8fuJ4aYV3CZtsskgg/o.jpg", "is_closed": false, "url": "https://www.yelp.com/biz/panda-express-marietta-4?adjust_creative=mOQnsCAQCU1OEchZbfnYAg&utm_campaign=yelp_api_v3&utm_medium=api_v3_business_search&utm_source=mOQnsCAQCU1OEchZbfnYAg", "review_count": 25, "categories": [{"alias": "chinese", "title": "Chinese"}, {"alias": "hotdogs", "title": "Fast Food"}], "rating": 1.5, "coordinates": {"latitude": 34.03469714766852, "longitude": -84.46343243168}, "transactions": ["delivery"], "location": {"address1": "3460 Sandy Plains Rd NE", "address2": "Ste 210", "address3": null, "city": "Marietta", "zip_code": "30066", "country": "US", "state": "GA", "display_address": ["3460 Sandy Plains Rd NE", "Ste 210", "Marietta, GA 30066"]}, "phone": "+16782506879", "display_phone": "(678) 250-6879", "distance": 25984.44991664721}, {"id": "o1GLV2gbTKSiP5VKsjTeAw", "alias": "dragon-teriyaki-express-atlanta-2", "name": "Dragon Teriyaki Express", "image_url": "https://s3-media4.fl.yelpcdn.com/bphoto/zD_gBXQ8rS3mo1MXSODVbw/o.jpg", "is_closed": false, "url": "https://www.yelp.com/biz/dragon-teriyaki-express-atlanta-2?adjust_creative=mOQnsCAQCU1OEchZbfnYAg&utm_campaign=yelp_api_v3&utm_medium=api_v3_business_search&utm_source=mOQnsCAQCU1OEchZbfnYAg", "review_count": 16, "categories": [{"alias": "chinese", "title": "Chinese"}], "rating": 4.5, "coordinates": {"latitude": 33.731556, "longitude": -84.568813}, "transactions": ["pickup", "delivery"], "location": {"address1": "5630 Fulton Industrial Blvd SW", "address2": "Ste A", "address3": "", "city": "Atlanta", "zip_code": "30336", "country": "US", "state": "GA", "display_address": ["5630 Fulton Industrial Blvd SW", "Ste A", "Atlanta, GA 30336"]}, "phone": "+14042280965", "display_phone": "(404) 228-0965", "distance": 20203.723275784658}, {"id": "ZcUB2M-pVd0_6wxyq_TSpw", "alias": "wokdragon-atlanta-2", "name": "Wokdragon", "image_url": "https://s3-media4.fl.yelpcdn.com/bphoto/RzAfpxGQWBGllJrFtWkX3A/o.jpg", "is_closed": false, "url": "https://www.yelp.com/biz/wokdragon-atlanta-2?adjust_creative=mOQnsCAQCU1OEchZbfnYAg&utm_campaign=yelp_api_v3&utm_medium=api_v3_business_search&utm_source=mOQnsCAQCU1OEchZbfnYAg", "review_count": 57, "categories": [{"alias": "food_court", "title": "Food Court"}, {"alias": "chinese", "title": "Chinese"}], "rating": 3.5, "coordinates": {"latitude": 33.8455044040459, "longitude": -84.3610376081817}, "transactions": ["pickup", "delivery"], "price": "$", "location": {"address1": "3393 Peachtree Rd NE", "address2": "", "address3": "Lenox Square Food Court", "city": "Atlanta", "zip_code": "30326", "country": "US", "state": "GA", "display_address": ["3393 Peachtree Rd NE", "Lenox Square Food Court", "Atlanta, GA 30326"]}, "phone": "+14042390088", "display_phone": "(404) 239-0088", "distance": 3774.2273604165903}, {"id": "HVMQidKegc9wqCBtB8dMsQ", "alias": "extreme-teriyaki-grill-express-atlanta-7", "name": "Extreme Teriyaki Grill Express", "image_url": "https://s3-media4.fl.yelpcdn.com/bphoto/Eww3pnakDUE58mKJ50BC4w/o.jpg", "is_closed": false, "url": "https://www.yelp.com/biz/extreme-teriyaki-grill-express-atlanta-7?adjust_creative=mOQnsCAQCU1OEchZbfnYAg&utm_campaign=yelp_api_v3&utm_medium=api_v3_business_search&utm_source=mOQnsCAQCU1OEchZbfnYAg", "review_count": 87, "categories": [{"alias": "japanese", "title": "Japanese"}, {"alias": "hotdogs", "title": "Fast Food"}, {"alias": "noodles", "title": "Noodles"}], "rating": 3.0, "coordinates": {"latitude": 33.8042201513416, "longitude": -84.412776273819}, "transactions": ["delivery"], "price": "$", "location": {"address1": "1801 Howell Mill Rd NW", "address2": "Ste 610", "address3": "", "city": "Atlanta", "zip_code": "30318", "country": "US", "state": "GA", "display_address": ["1801 Howell Mill Rd NW", "Ste 610", "Atlanta, GA 30318"]}, "phone": "+14043551800", "display_phone": "(404) 355-1800", "distance": 3752.776184290481}, {"id": "E_m4O8ypZfAjF6YNNjBXGg", "alias": "asian-chao-atlanta-4", "name": "Asian Chao", "image_url": "https://s3-media2.fl.yelpcdn.com/bphoto/qGbR_ezllHz04kScb_aGvQ/o.jpg", "is_closed": false, "url": "https://www.yelp.com/biz/asian-chao-atlanta-4?adjust_creative=mOQnsCAQCU1OEchZbfnYAg&utm_campaign=yelp_api_v3&utm_medium=api_v3_business_search&utm_source=mOQnsCAQCU1OEchZbfnYAg", "review_count": 99, "categories": [{"alias": "chinese", "title": "Chinese"}, {"alias": "asianfusion", "title": "Asian Fusion"}], "rating": 1.5, "coordinates": {"latitude": 33.637951, "longitude": -84.439086}, "transactions": [], "price": "$", "location": {"address1": "6000 N Terminal Pkwy", "address2": "Concourse A3", "address3": "", "city": "Atlanta", "zip_code": "30320", "country": "US", "state": "GA", "display_address": ["6000 N Terminal Pkwy", "Concourse A3", "Atlanta, GA 30320"]}, "phone": "+14042090170", "display_phone": "(404) 209-0170", "distance": 20406.84702192792}, {"id": "jrg5FDPGm7ndpJtZShcjOQ", "alias": "p-f-changs-atlanta-6", "name": "P.F. Chang's", "image_url": "https://s3-media4.fl.yelpcdn.com/bphoto/ZNf1QNQnllVlb_N_upy24A/o.jpg", "is_closed": false, "url": "https://www.yelp.com/biz/p-f-changs-atlanta-6?adjust_creative=mOQnsCAQCU1OEchZbfnYAg&utm_campaign=yelp_api_v3&utm_medium=api_v3_business_search&utm_source=mOQnsCAQCU1OEchZbfnYAg", "review_count": 550, "categories": [{"alias": "chinese", "title": "Chinese"}, {"alias": "asianfusion", "title": "Asian Fusion"}], "rating": 2.5, "coordinates": {"latitude": 33.8811404, "longitude": -84.4686058}, "transactions": ["pickup", "delivery"], "price": "$$", "location": {"address1": "1624 Cumberland Mall", "address2": "Ste Ls108", "address3": "", "city": "Atlanta", "zip_code": "30339", "country": "US", "state": "GA", "display_address": ["1624 Cumberland Mall", "Ste Ls108", "Atlanta, GA 30339"]}, "phone": "+17708035800", "display_phone": "(770) 803-5800", "distance": 11575.256762167497}, {"id": "y2zAmhmR8QpueFbbMLxFVQ", "alias": "p-f-changs-atlanta-5", "name": "P.F. Chang's", "image_url": "https://s3-media3.fl.yelpcdn.com/bphoto/JL6az5xtIPxXH0yTVTdtaw/o.jpg", "is_closed": false, "url": "https://www.yelp.com/biz/p-f-changs-atlanta-5?adjust_creative=mOQnsCAQCU1OEchZbfnYAg&utm_campaign=yelp_api_v3&utm_medium=api_v3_business_search&utm_source=mOQnsCAQCU1OEchZbfnYAg", "review_count": 359, "categories": [{"alias": "chinese", "title": "Chinese"}, {"alias": "asianfusion", "title": "Asian Fusion"}], "rating": 3.5, "coordinates": {"latitude": 33.64099828889828, "longitude": -84.43883705018536}, "transactions": [], "price": "$$", "location": {"address1": "8700 Spine Road", "address2": "Space F11", "address3": null, "city": "Atlanta", "zip_code": "30320", "country": "US", "state": "GA", "display_address": ["8700 Spine Road", "Space F11", "Atlanta, GA 30320"]}, "phone": "+14044812146", "display_phone": "(404) 481-2146", "distance": 20076.54884932284}, {"id": "U4BBB6tvLqr62Fm-QE3yiA", "alias": "farmers-basket-atlanta", "name": "Farmer's Basket", "image_url": "https://s3-media3.fl.yelpcdn.com/bphoto/FpOqLJzgiiI_TqqGQzEiLA/o.jpg", "is_closed": false, "url": "https://www.yelp.com/biz/farmers-basket-atlanta?adjust_creative=mOQnsCAQCU1OEchZbfnYAg&utm_campaign=yelp_api_v3&utm_medium=api_v3_business_search&utm_source=mOQnsCAQCU1OEchZbfnYAg", "review_count": 40, "categories": [{"alias": "hotdogs", "title": "Fast Food"}, {"alias": "southern", "title": "Southern"}, {"alias": "comfortfood", "title": "Comfort Food"}], "rating": 4.0, "coordinates": {"latitude": 33.845004, "longitude": -84.361178}, "transactions": ["pickup", "delivery"], "price": "$", "location": {"address1": "3393 Peachtree Rd NE", "address2": "", "address3": "", "city": "Atlanta", "zip_code": "30326", "country": "US", "state": "GA", "display_address": ["3393 Peachtree Rd NE", "Atlanta, GA 30326"]}, "phone": "+14049950089", "display_phone": "(404) 995-0089", "distance": 3717.30055509155}, {"id": "kzXrQKJpN2JyLd68iwH3hg", "alias": "little-bangkok-atlanta", "name": "Little Bangkok", "image_url": "https://s3-media1.fl.yelpcdn.com/bphoto/0vyHiWquSQAAXSwrE2iRQQ/o.jpg", "is_closed": false, "url": "https://www.yelp.com/biz/little-bangkok-atlanta?adjust_creative=mOQnsCAQCU1OEchZbfnYAg&utm_campaign=yelp_api_v3&utm_medium=api_v3_business_search&utm_source=mOQnsCAQCU1OEchZbfnYAg", "review_count": 851, "categories": [{"alias": "chinese", "title": "Chinese"}, {"alias": "thai", "title": "Thai"}], "rating": 4.0, "coordinates": {"latitude": 33.81593, "longitude": -84.35219}, "transactions": ["delivery"], "price": "$$", "location": {"address1": "2225 Cheshire Bridge Rd Ne", "address2": "", "address3": "", "city": "Atlanta", "zip_code": "30324", "country": "US", "state": "GA", "display_address": ["2225 Cheshire Bridge Rd Ne", "Atlanta, GA 30324"]}, "phone": "+14043151530", "display_phone": "(404) 315-1530", "distance": 1996.18363113888}, {"id": "uB7IZ1v0tdIckr8gH82R0g", "alias": "la-mei-zi-doraville", "name": "La Mei Zi", "image_url": "https://s3-media2.fl.yelpcdn.com/bphoto/vEHlolBjgUhVDGz86u0fZQ/o.jpg", "is_closed": false, "url": "https://www.yelp.com/biz/la-mei-zi-doraville?adjust_creative=mOQnsCAQCU1OEchZbfnYAg&utm_campaign=yelp_api_v3&utm_medium=api_v3_business_search&utm_source=mOQnsCAQCU1OEchZbfnYAg", "review_count": 640, "categories": [{"alias": "chinese", "title": "Chinese"}, {"alias": "taiwanese", "title": "Taiwanese"}], "rating": 4.5, "coordinates": {"latitude": 33.8927899012153, "longitude": -84.2862031236291}, "transactions": ["delivery", "pickup"], "price": "$$", "location": {"address1": "5150 Buford Hwy", "address2": "Ste C-310", "address3": "", "city": "Doraville", "zip_code": "30340", "country": "US", "state": "GA", "display_address": ["5150 Buford Hwy", "Ste C-310", "Doraville, GA 30340"]}, "phone": "+17706760225", "display_phone": "(770) 676-0225", "distance": 11977.906646793781}, {"id": "_EDPYQJ4-KKivHOdF3XHhA", "alias": "gus-dumplings-atlanta", "name": "Gu's Dumplings", "image_url": "https://s3-media1.fl.yelpcdn.com/bphoto/4vPiqO-wa37WaMGDf5-C5w/o.jpg", "is_closed": false, "url": "https://www.yelp.com/biz/gus-dumplings-atlanta?adjust_creative=mOQnsCAQCU1OEchZbfnYAg&utm_campaign=yelp_api_v3&utm_medium=api_v3_business_search&utm_source=mOQnsCAQCU1OEchZbfnYAg", "review_count": 569, "categories": [{"alias": "szechuan", "title": "Szechuan"}, {"alias": "catering", "title": "Caterers"}], "rating": 3.5, "coordinates": {"latitude": 33.7567055924841, "longitude": -84.3641988024076}, "transactions": ["delivery", "pickup"], "price": "$$", "location": {"address1": "99 Krog St NE", "address2": "Ste M", "address3": "", "city": "Atlanta", "zip_code": "30307", "country": "US", "state": "GA", "display_address": ["99 Krog St NE", "Ste M", "Atlanta, GA 30307"]}, "phone": "+14045276007", "display_phone": "(404) 527-6007", "distance": 6343.466516986768}, {"id": "AiGMGSEAube0ch89f5C93A", "alias": "tin-drum-atlanta-13", "name": "Tin Drum", "image_url": "https://s3-media4.fl.yelpcdn.com/bphoto/5Ut0zJQYsYUF2ufPzaTjrw/o.jpg", "is_closed": false, "url": "https://www.yelp.com/biz/tin-drum-atlanta-13?adjust_creative=mOQnsCAQCU1OEchZbfnYAg&utm_campaign=yelp_api_v3&utm_medium=api_v3_business_search&utm_source=mOQnsCAQCU1OEchZbfnYAg", "review_count": 283, "categories": [{"alias": "thai", "title": "Thai"}, {"alias": "asianfusion", "title": "Asian Fusion"}, {"alias": "chinese", "title": "Chinese"}], "rating": 3.0, "coordinates": {"latitude": 33.7766376, "longitude": -84.3900977}, "transactions": ["pickup", "delivery"], "price": "$", "location": {"address1": "88 5th St NW", "address2": "", "address3": "", "city": "Atlanta", "zip_code": "30308", "country": "US", "state": "GA", "display_address": ["88 5th St NW", "Atlanta, GA 30308"]}, "phone": "+14048811368", "display_phone": "(404) 881-1368", "distance": 4342.4786073939995}, {"id": "bCY3Jn1_p9GbCwnDzU-nDA", "alias": "hsus-atlanta-atlanta", "name": "Hsu's Atlanta", "image_url": "https://s3-media3.fl.yelpcdn.com/bphoto/ty9SHQdW8ue204AbOrkq9g/o.jpg", "is_closed": false, "url": "https://www.yelp.com/biz/hsus-atlanta-atlanta?adjust_creative=mOQnsCAQCU1OEchZbfnYAg&utm_campaign=yelp_api_v3&utm_medium=api_v3_business_search&utm_source=mOQnsCAQCU1OEchZbfnYAg", "review_count": 425, "categories": [{"alias": "chinese", "title": "Chinese"}, {"alias": "noodles", "title": "Noodles"}], "rating": 4.0, "coordinates": {"latitude": 33.75947016572161, "longitude": -84.38628074334237}, "transactions": ["delivery", "pickup"], "price": "$$", "location": {"address1": "192 Peachtree Center Ave NE", "address2": "", "address3": "", "city": "Atlanta", "zip_code": "30303", "country": "US", "state": "GA", "display_address": ["192 Peachtree Center Ave NE", "Atlanta, GA 30303"]}, "phone": "+14046592788", "display_phone": "(404) 659-2788", "distance": 6089.285399726852}, {"id": "O4KEt-WkqqQiSJlA2Ju7gQ", "alias": "fortune-cookie-atlanta", "name": "Fortune Cookie", "image_url": "https://s3-media1.fl.yelpcdn.com/bphoto/FPvS6xvnzesvjx2Gor5oZw/o.jpg", "is_closed": false, "url": "https://www.yelp.com/biz/fortune-cookie-atlanta?adjust_creative=mOQnsCAQCU1OEchZbfnYAg&utm_campaign=yelp_api_v3&utm_medium=api_v3_business_search&utm_source=mOQnsCAQCU1OEchZbfnYAg", "review_count": 369, "categories": [{"alias": "chinese", "title": "Chinese"}], "rating": 3.5, "coordinates": {"latitude": 33.82657508337562, "longitude": -84.3334578636349}, "transactions": ["pickup", "delivery"], "price": "$$", "location": {"address1": "2480 Briarcliff Rd NE", "address2": "Ste 7", "address3": "", "city": "Atlanta", "zip_code": "30329", "country": "US", "state": "GA", "display_address": ["2480 Briarcliff Rd NE", "Ste 7", "Atlanta, GA 30329"]}, "phone": "+14046368899", "display_phone": "(404) 636-8899", "distance": 3997.1826261943506}, {"id": "pAYzF09U2sgWEFV4ndzMUg", "alias": "house-of-chan-smyrna", "name": "House of Chan", "image_url": "https://s3-media4.fl.yelpcdn.com/bphoto/8BReCd3AdZnE9jqIzU_GaA/o.jpg", "is_closed": false, "url": "https://www.yelp.com/biz/house-of-chan-smyrna?adjust_creative=mOQnsCAQCU1OEchZbfnYAg&utm_campaign=yelp_api_v3&utm_medium=api_v3_business_search&utm_source=mOQnsCAQCU1OEchZbfnYAg", "review_count": 254, "categories": [{"alias": "chinese", "title": "Chinese"}], "rating": 4.0, "coordinates": {"latitude": 33.8916682451963, "longitude": -84.4769507646561}, "transactions": ["pickup", "delivery"], "price": "$$", "location": {"address1": "2469 Cobb Pkwy SE", "address2": "", "address3": "", "city": "Smyrna", "zip_code": "30080", "country": "US", "state": "GA", "display_address": ["2469 Cobb Pkwy SE", "Smyrna, GA 30080"]}, "phone": "+17709559444", "display_phone": "(770) 955-9444", "distance": 12875.6973769951}, {"id": "9STKYeLeC1mWYq-M123Evg", "alias": "canton-cooks-atlanta", "name": "Canton Cooks", "image_url": "https://s3-media2.fl.yelpcdn.com/bphoto/Pj4LuTyyvf2V941aX96ORA/o.jpg", "is_closed": false, "url": "https://www.yelp.com/biz/canton-cooks-atlanta?adjust_creative=mOQnsCAQCU1OEchZbfnYAg&utm_campaign=yelp_api_v3&utm_medium=api_v3_business_search&utm_source=mOQnsCAQCU1OEchZbfnYAg", "review_count": 460, "categories": [{"alias": "cantonese", "title": "Cantonese"}], "rating": 3.5, "coordinates": {"latitude": 33.9185733068039, "longitude": -84.3818805973755}, "transactions": ["delivery"], "price": "$$", "location": {"address1": "5984 Roswell Rd NE", "address2": "", "address3": "", "city": "Atlanta", "zip_code": "30328", "country": "US", "state": "GA", "display_address": ["5984 Roswell Rd NE", "Atlanta, GA 30328"]}, "phone": "+14042520322", "display_phone": "(404) 252-0322", "distance": 11740.265737285408}, {"id": "NaD-3DjLnBRMY4aOZRwUgQ", "alias": "tin-drum-asian-kitchen-sandy-springs", "name": "Tin Drum Asian Kitchen", "image_url": "https://s3-media4.fl.yelpcdn.com/bphoto/UWC_k8_5GAX9R1PvsE0Feg/o.jpg", "is_closed": false, "url": "https://www.yelp.com/biz/tin-drum-asian-kitchen-sandy-springs?adjust_creative=mOQnsCAQCU1OEchZbfnYAg&utm_campaign=yelp_api_v3&utm_medium=api_v3_business_search&utm_source=mOQnsCAQCU1OEchZbfnYAg", "review_count": 107, "categories": [{"alias": "asianfusion", "title": "Asian Fusion"}, {"alias": "chinese", "title": "Chinese"}, {"alias": "thai", "title": "Thai"}], "rating": 3.5, "coordinates": {"latitude": 33.91489259, "longitude": -84.38030325}, "transactions": ["pickup", "delivery"], "price": "$", "location": {"address1": "5840 Roswell Rd", "address2": "Ste 1200", "address3": null, "city": "Sandy Springs", "zip_code": "30328", "country": "US", "state": "GA", "display_address": ["5840 Roswell Rd", "Ste 1200", "Sandy Springs, GA 30328"]}, "phone": "+14043308886", "display_phone": "(404) 330-8886", "distance": 11323.022374359809}, {"id": "LKEXp6ME_aU1wIiF6WCPcA", "alias": "china-cafe-7-atlanta", "name": "China Cafe 7", "image_url": "https://s3-media4.fl.yelpcdn.com/bphoto/sxv0EOEkSgTO_icjpf8rWA/o.jpg", "is_closed": false, "url": "https://www.yelp.com/biz/china-cafe-7-atlanta?adjust_creative=mOQnsCAQCU1OEchZbfnYAg&utm_campaign=yelp_api_v3&utm_medium=api_v3_business_search&utm_source=mOQnsCAQCU1OEchZbfnYAg", "review_count": 48, "categories": [{"alias": "chinese", "title": "Chinese"}, {"alias": "seafood", "title": "Seafood"}, {"alias": "soup", "title": "Soup"}], "rating": 3.5, "coordinates": {"latitude": 33.60662, "longitude": -84.43492}, "transactions": ["pickup", "delivery"], "price": "$", "location": {"address1": "5436 Riverdale Rd", "address2": "", "address3": "", "city": "Atlanta", "zip_code": "30349", "country": "US", "state": "GA", "display_address": ["5436 Riverdale Rd", "Atlanta, GA 30349"]}, "phone": "+17709077789", "display_phone": "(770) 907-7789", "distance": 23652.96878700228}, {"id": "z7pfTL0H1b1aymOv61OypA", "alias": "nova-sushi-bar-and-asian-bistro-atlanta", "name": "Nova Sushi Bar & Asian Bistro", "image_url": "https://s3-media2.fl.yelpcdn.com/bphoto/fKBq6maCnQZaCVeOXjQNLw/o.jpg", "is_closed": false, "url": "https://www.yelp.com/biz/nova-sushi-bar-and-asian-bistro-atlanta?adjust_creative=mOQnsCAQCU1OEchZbfnYAg&utm_campaign=yelp_api_v3&utm_medium=api_v3_business_search&utm_source=mOQnsCAQCU1OEchZbfnYAg", "review_count": 363, "categories": [{"alias": "sushi", "title": "Sushi Bars"}, {"alias": "chinese", "title": "Chinese"}, {"alias": "japanese", "title": "Japanese"}], "rating": 4.0, "coordinates": {"latitude": 33.8529782200191, "longitude": -84.35831769600408}, "transactions": ["pickup", "delivery"], "price": "$$", "location": {"address1": "3637 Peachtree Rd NE", "address2": "Ste D-1", "address3": null, "city": "Atlanta", "zip_code": "30319", "country": "US", "state": "GA", "display_address": ["3637 Peachtree Rd NE", "Ste D-1", "Atlanta, GA 30319"]}, "phone": "+16787323239", "display_phone": "(678) 732-3239", "distance": 4642.268027099396}, {"id": "pjSPXzzCVkU8JbL9Xn1j4g", "alias": "mandarin-express-atlanta-6", "name": "Mandarin Express", "image_url": "https://s3-media3.fl.yelpcdn.com/bphoto/408FPX9BiKhYvQZwS4Hehg/o.jpg", "is_closed": false, "url": "https://www.yelp.com/biz/mandarin-express-atlanta-6?adjust_creative=mOQnsCAQCU1OEchZbfnYAg&utm_campaign=yelp_api_v3&utm_medium=api_v3_business_search&utm_source=mOQnsCAQCU1OEchZbfnYAg", "review_count": 3, "categories": [{"alias": "chinese", "title": "Chinese"}], "rating": 4.0, "coordinates": {"latitude": 33.923805577500474, "longitude": -84.34099910839005}, "transactions": ["pickup", "delivery"], "location": {"address1": "4400 Ashford Dunwoody Rd", "address2": null, "address3": null, "city": "Atlanta", "zip_code": "30346", "country": "US", "state": "GA", "display_address": ["4400 Ashford Dunwoody Rd", "Atlanta, GA 30346"]}, "phone": "+14702602982", "display_phone": "(470) 260-2982", "distance": 12660.899687173256}, {"id": "cuvZh4F9zrexeOKC0W0_lw", "alias": "grand-china-restaurant-atlanta", "name": "Grand China Restaurant", "image_url": "https://s3-media2.fl.yelpcdn.com/bphoto/vUDM1NLviORE-b2OhtVH5Q/o.jpg", "is_closed": false, "url": "https://www.yelp.com/biz/grand-china-restaurant-atlanta?adjust_creative=mOQnsCAQCU1OEchZbfnYAg&utm_campaign=yelp_api_v3&utm_medium=api_v3_business_search&utm_source=mOQnsCAQCU1OEchZbfnYAg", "review_count": 503, "categories": [{"alias": "chinese", "title": "Chinese"}, {"alias": "thai", "title": "Thai"}, {"alias": "japanese", "title": "Japanese"}], "rating": 4.0, "coordinates": {"latitude": 33.8341682325674, "longitude": -84.38237512854636}, "transactions": ["pickup", "delivery"], "price": "$$", "location": {"address1": "2905 Peachtree Rd NE", "address2": "", "address3": "", "city": "Atlanta", "zip_code": "30305", "country": "US", "state": "GA", "display_address": ["2905 Peachtree Rd NE", "Atlanta, GA 30305"]}, "phone": "+14042318690", "display_phone": "(404) 231-8690", "distance": 2466.2637083128475}, {"id": "ZorYncxAhsAB5arury33jg", "alias": "china-breeze-atlanta", "name": "China Breeze", "image_url": "https://s3-media4.fl.yelpcdn.com/bphoto/zxoq_poJnfJrYLRzOSCslQ/o.jpg", "is_closed": false, "url": "https://www.yelp.com/biz/china-breeze-atlanta?adjust_creative=mOQnsCAQCU1OEchZbfnYAg&utm_campaign=yelp_api_v3&utm_medium=api_v3_business_search&utm_source=mOQnsCAQCU1OEchZbfnYAg", "review_count": 12, "categories": [{"alias": "chinese", "title": "Chinese"}], "rating": 3.0, "coordinates": {"latitude": 33.7573154005177, "longitude": -84.3949866172088}, "transactions": ["delivery"], "price": "$", "location": {"address1": "190 Marietta St NW", "address2": "", "address3": "", "city": "Atlanta", "zip_code": "30303", "country": "US", "state": "GA", "display_address": ["190 Marietta St NW", "Atlanta, GA 30303"]}, "phone": "+14045506339", "display_phone": "(404) 550-6339", "distance": 6521.474983221742}, {"id": "R02zhZJ9bHRGiV47YbTU1A", "alias": "tasty-china-jia-atlanta", "name": "Tasty China Jia", "image_url": "https://s3-media1.fl.yelpcdn.com/bphoto/qGbD-NDVrjSjaa2rs3e7aw/o.jpg", "is_closed": false, "url": "https://www.yelp.com/biz/tasty-china-jia-atlanta?adjust_creative=mOQnsCAQCU1OEchZbfnYAg&utm_campaign=yelp_api_v3&utm_medium=api_v3_business_search&utm_source=mOQnsCAQCU1OEchZbfnYAg", "review_count": 516, "categories": [{"alias": "szechuan", "title": "Szechuan"}, {"alias": "seafood", "title": "Seafood"}, {"alias": "soup", "title": "Soup"}], "rating": 3.0, "coordinates": {"latitude": 33.772372216316, "longitude": -84.3658345460327}, "transactions": ["delivery"], "price": "$$", "location": {"address1": "675 Ponce De Leon Ave NE", "address2": "", "address3": "", "city": "Atlanta", "zip_code": "30308", "country": "US", "state": "GA", "display_address": ["675 Ponce De Leon Ave NE", "Atlanta, GA 30308"]}, "phone": "+14703432881", "display_phone": "(470) 343-2881", "distance": 4598.02809740452}, {"id": "TW01G_oswhDArG65-l1uEw", "alias": "kongs-kitchen-atlanta-3", "name": "Kong's Kitchen", "image_url": "https://s3-media1.fl.yelpcdn.com/bphoto/3xG3kg3_KVd1Cc7RVIbZHg/o.jpg", "is_closed": false, "url": "https://www.yelp.com/biz/kongs-kitchen-atlanta-3?adjust_creative=mOQnsCAQCU1OEchZbfnYAg&utm_campaign=yelp_api_v3&utm_medium=api_v3_business_search&utm_source=mOQnsCAQCU1OEchZbfnYAg", "review_count": 141, "categories": [{"alias": "chinese", "title": "Chinese"}], "rating": 3.0, "coordinates": {"latitude": 33.7976904, "longitude": -84.3687105}, "transactions": ["pickup", "delivery"], "location": {"address1": "1584 Piedmont Ave NE", "address2": null, "address3": "", "city": "Atlanta", "zip_code": "30324", "country": "US", "state": "GA", "display_address": ["1584 Piedmont Ave NE", "Atlanta, GA 30324"]}, "phone": "+16789742666", "display_phone": "(678) 974-2666", "distance": 1774.3354905389713}, {"id": "-cuKXq4xwkXF85xMI2yTFg", "alias": "tasty-china-marietta", "name": "Tasty China", "image_url": "https://s3-media3.fl.yelpcdn.com/bphoto/Vvj9s-yH8m8uTn5lPRzoaw/o.jpg", "is_closed": false, "url": "https://www.yelp.com/biz/tasty-china-marietta?adjust_creative=mOQnsCAQCU1OEchZbfnYAg&utm_campaign=yelp_api_v3&utm_medium=api_v3_business_search&utm_source=mOQnsCAQCU1OEchZbfnYAg", "review_count": 441, "categories": [{"alias": "chinese", "title": "Chinese"}], "rating": 3.5, "coordinates": {"latitude": 33.93861, "longitude": -84.50623}, "transactions": ["delivery"], "price": "$$", "location": {"address1": "585 Franklin Gateway SE", "address2": "Ste 215", "address3": "", "city": "Marietta", "zip_code": "30067", "country": "US", "state": "GA", "display_address": ["585 Franklin Gateway SE", "Ste 215", "Marietta, GA 30067"]}, "phone": "+17704199849", "display_phone": "(770) 419-9849", "distance": 18554.85527135064}, {"id": "MCF_zWF5gn1HQebVacRY3A", "alias": "tin-drum-atlanta-12", "name": "Tin Drum", "image_url": "https://s3-media3.fl.yelpcdn.com/bphoto/bKrO9YKbzG7FdJypl1gzNg/o.jpg", "is_closed": false, "url": "https://www.yelp.com/biz/tin-drum-atlanta-12?adjust_creative=mOQnsCAQCU1OEchZbfnYAg&utm_campaign=yelp_api_v3&utm_medium=api_v3_business_search&utm_source=mOQnsCAQCU1OEchZbfnYAg", "review_count": 215, "categories": [{"alias": "asianfusion", "title": "Asian Fusion"}, {"alias": "thai", "title": "Thai"}, {"alias": "chinese", "title": "Chinese"}], "rating": 3.0, "coordinates": {"latitude": 33.825598, "longitude": -84.364861}, "transactions": ["pickup", "delivery"], "price": "$", "location": {"address1": "2561 Piedmont Rd NE", "address2": "", "address3": "", "city": "Atlanta", "zip_code": "30324", "country": "US", "state": "GA", "display_address": ["2561 Piedmont Rd NE", "Atlanta, GA 30324"]}, "phone": "+14048468689", "display_phone": "(404) 846-8689", "distance": 1597.5732338969467}, {"id": "QE2wimfw3gyHKOm0CBal7g", "alias": "mandarin-express-atlanta-4", "name": "Mandarin Express", "image_url": "https://s3-media2.fl.yelpcdn.com/bphoto/J2_FNx49aNVDywneXRrTaw/o.jpg", "is_closed": false, "url": "https://www.yelp.com/biz/mandarin-express-atlanta-4?adjust_creative=mOQnsCAQCU1OEchZbfnYAg&utm_campaign=yelp_api_v3&utm_medium=api_v3_business_search&utm_source=mOQnsCAQCU1OEchZbfnYAg", "review_count": 11, "categories": [{"alias": "chinese", "title": "Chinese"}], "rating": 2.5, "coordinates": {"latitude": 33.6407137751253, "longitude": -84.4358325004578}, "transactions": [], "price": "$", "location": {"address1": "Hartsfield Atlanta Airport", "address2": "", "address3": "Terminal B", "city": "Atlanta", "zip_code": "30320", "country": "US", "state": "GA", "display_address": ["Hartsfield Atlanta Airport", "Terminal B", "Atlanta, GA 30320"]}, "phone": "", "display_phone": "", "distance": 20025.144866935196}, {"id": "c9ytV9Lqu-TkdoINHLSGCw", "alias": "hong-kong-cafe-johns-creek-2", "name": "Hong Kong Cafe", "image_url": "https://s3-media3.fl.yelpcdn.com/bphoto/00fxbBC5k05Q9WdqUgDA8w/o.jpg", "is_closed": false, "url": "https://www.yelp.com/biz/hong-kong-cafe-johns-creek-2?adjust_creative=mOQnsCAQCU1OEchZbfnYAg&utm_campaign=yelp_api_v3&utm_medium=api_v3_business_search&utm_source=mOQnsCAQCU1OEchZbfnYAg", "review_count": 89, "categories": [{"alias": "hkcafe", "title": "Hong Kong Style Cafe"}, {"alias": "cantonese", "title": "Cantonese"}], "rating": 4.0, "coordinates": {"latitude": 34.04468996496295, "longitude": -84.17709112569945}, "transactions": ["delivery"], "price": "$$", "location": {"address1": "10820 Abbotts Bridge Rd", "address2": "Ste 110", "address3": null, "city": "Johns Creek", "zip_code": "30097", "country": "US", "state": "GA", "display_address": ["10820 Abbotts Bridge Rd", "Ste 110", "Johns Creek, GA 30097"]}, "phone": "+17706232060", "display_phone": "(770) 623-2060", "distance": 31484.777558780417}, {"id": "q14kE_FYocXv9L4EEYzrzA", "alias": "tin-drum-atlanta-11", "name": "Tin Drum", "image_url": "https://s3-media4.fl.yelpcdn.com/bphoto/jgYqsfFyMdQok337i5A94Q/o.jpg", "is_closed": false, "url": "https://www.yelp.com/biz/tin-drum-atlanta-11?adjust_creative=mOQnsCAQCU1OEchZbfnYAg&utm_campaign=yelp_api_v3&utm_medium=api_v3_business_search&utm_source=mOQnsCAQCU1OEchZbfnYAg", "review_count": 159, "categories": [{"alias": "asianfusion", "title": "Asian Fusion"}, {"alias": "chinese", "title": "Chinese"}, {"alias": "thai", "title": "Thai"}], "rating": 3.0, "coordinates": {"latitude": 33.82850756, "longitude": -84.32906461}, "transactions": ["pickup", "delivery"], "price": "$", "location": {"address1": "2566 Briarcliff Rd NE", "address2": null, "address3": "", "city": "Atlanta", "zip_code": "30329", "country": "US", "state": "GA", "display_address": ["2566 Briarcliff Rd NE", "Atlanta, GA 30329"]}, "phone": "+14042055650", "display_phone": "(404) 205-5650", "distance": 4454.046407728362}, {"id": "jrk6pBeLhBVaO1fE4oOo8A", "alias": "hai-decatur-2", "name": "Hai", "image_url": "https://s3-media2.fl.yelpcdn.com/bphoto/UU3rzuq7IsWDXIfS7zGV0Q/o.jpg", "is_closed": false, "url": "https://www.yelp.com/biz/hai-decatur-2?adjust_creative=mOQnsCAQCU1OEchZbfnYAg&utm_campaign=yelp_api_v3&utm_medium=api_v3_business_search&utm_source=mOQnsCAQCU1OEchZbfnYAg", "review_count": 307, "categories": [{"alias": "chinese", "title": "Chinese"}], "rating": 4.0, "coordinates": {"latitude": 33.792031, "longitude": -84.286616}, "transactions": ["pickup", "delivery"], "price": "$$", "location": {"address1": "2641 N Decatur Rd", "address2": null, "address3": "", "city": "Decatur", "zip_code": "30033", "country": "US", "state": "GA", "display_address": ["2641 N Decatur Rd", "Decatur, GA 30033"]}, "phone": "+14702257172", "display_phone": "(470) 225-7172", "distance": 8388.739150217492}, {"id": "G9zxJEyr52KXzAtTXS-Bmw", "alias": "green-china-cafe-suwanee", "name": "Green China Cafe", "image_url": "https://s3-media1.fl.yelpcdn.com/bphoto/kfdV_UsDflNBET41Qzix9A/o.jpg", "is_closed": false, "url": "https://www.yelp.com/biz/green-china-cafe-suwanee?adjust_creative=mOQnsCAQCU1OEchZbfnYAg&utm_campaign=yelp_api_v3&utm_medium=api_v3_business_search&utm_source=mOQnsCAQCU1OEchZbfnYAg", "review_count": 157, "categories": [{"alias": "chinese", "title": "Chinese"}], "rating": 4.5, "coordinates": {"latitude": 34.08741335617644, "longitude": -84.16426612944771}, "transactions": ["pickup", "delivery"], "price": "$$", "location": {"address1": "3105 Peachtree Pkwy", "address2": "", "address3": "", "city": "Suwanee", "zip_code": "30024", "country": "US", "state": "GA", "display_address": ["3105 Peachtree Pkwy", "Suwanee, GA 30024"]}, "phone": "+17708880488", "display_phone": "(770) 888-0488", "distance": 36090.65961302863}, {"id": "yn7CQHnx7pPA_1jgJE4cmQ", "alias": "tin-drum-dunwoody-2", "name": "Tin Drum", "image_url": "https://s3-media3.fl.yelpcdn.com/bphoto/seMHqfXukTNuu0XhHd7oLw/o.jpg", "is_closed": false, "url": "https://www.yelp.com/biz/tin-drum-dunwoody-2?adjust_creative=mOQnsCAQCU1OEchZbfnYAg&utm_campaign=yelp_api_v3&utm_medium=api_v3_business_search&utm_source=mOQnsCAQCU1OEchZbfnYAg", "review_count": 272, "categories": [{"alias": "asianfusion", "title": "Asian Fusion"}, {"alias": "thai", "title": "Thai"}, {"alias": "chinese", "title": "Chinese"}], "rating": 3.5, "coordinates": {"latitude": 33.92940469, "longitude": -84.34361093}, "transactions": ["pickup", "delivery"], "price": "$$", "location": {"address1": "4530 Olde Perimeter Way", "address2": "", "address3": "", "city": "Dunwoody", "zip_code": "30346", "country": "US", "state": "GA", "display_address": ["4530 Olde Perimeter Way", "Dunwoody, GA 30346"]}, "phone": "+17703933006", "display_phone": "(770) 393-3006", "distance": 13213.751358581572}, {"id": "3xtIniL7cqAi0o7r45HVfA", "alias": "orient-at-vinings-atlanta", "name": "Orient At Vinings", "image_url": "https://s3-media3.fl.yelpcdn.com/bphoto/vEd3EjhomRrWROXxDvWSKQ/o.jpg", "is_closed": false, "url": "https://www.yelp.com/biz/orient-at-vinings-atlanta?adjust_creative=mOQnsCAQCU1OEchZbfnYAg&utm_campaign=yelp_api_v3&utm_medium=api_v3_business_search&utm_source=mOQnsCAQCU1OEchZbfnYAg", "review_count": 3, "categories": [{"alias": "chinese", "title": "Chinese"}], "rating": 3.5, "coordinates": {"latitude": 33.85978, "longitude": -84.45559}, "transactions": [], "price": "$$", "location": {"address1": "4199 Paces Ferry Rd SE", "address2": "", "address3": "", "city": "Atlanta", "zip_code": "30339", "country": "US", "state": "GA", "display_address": ["4199 Paces Ferry Rd SE", "Atlanta, GA 30339"]}, "phone": "+17704388866", "display_phone": "(770) 438-8866", "distance": 9190.853395137281}, {"id": "CNnuhe4lIpXLVAfo81s2vw", "alias": "big-boss-atlanta", "name": "Big Boss", "image_url": "https://s3-media3.fl.yelpcdn.com/bphoto/SHmA6ZS-MxyYIK_QhgqdCw/o.jpg", "is_closed": false, "url": "https://www.yelp.com/biz/big-boss-atlanta?adjust_creative=mOQnsCAQCU1OEchZbfnYAg&utm_campaign=yelp_api_v3&utm_medium=api_v3_business_search&utm_source=mOQnsCAQCU1OEchZbfnYAg", "review_count": 56, "categories": [{"alias": "chinese", "title": "Chinese"}], "rating": 4.5, "coordinates": {"latitude": 33.78106, "longitude": -84.39017}, "transactions": ["pickup", "delivery"], "location": {"address1": "100 10th St NW", "address2": "", "address3": null, "city": "Atlanta", "zip_code": "30309", "country": "US", "state": "GA", "display_address": ["100 10th St NW", "Atlanta, GA 30309"]}, "phone": "+14048555889", "display_phone": "(404) 855-5889", "distance": 3858.6733897385807}, {"id": "IR77nkjyZoWbRE4mPLMzNQ", "alias": "chico-and-chang-atlanta-2", "name": "Chico and Chang", "image_url": "https://s3-media2.fl.yelpcdn.com/bphoto/8wBj-t20dHUtxMXhaE70UQ/o.jpg", "is_closed": false, "url": "https://www.yelp.com/biz/chico-and-chang-atlanta-2?adjust_creative=mOQnsCAQCU1OEchZbfnYAg&utm_campaign=yelp_api_v3&utm_medium=api_v3_business_search&utm_source=mOQnsCAQCU1OEchZbfnYAg", "review_count": 73, "categories": [{"alias": "chinese", "title": "Chinese"}, {"alias": "asianfusion", "title": "Asian Fusion"}, {"alias": "mexican", "title": "Mexican"}], "rating": 3.5, "coordinates": {"latitude": 33.74066, "longitude": -84.35842}, "transactions": ["delivery"], "price": "$$", "location": {"address1": "475 Bill Kennedy Way SE", "address2": "Ste B", "address3": "", "city": "Atlanta", "zip_code": "30316", "country": "US", "state": "GA", "display_address": ["475 Bill Kennedy Way SE", "Ste B", "Atlanta, GA 30316"]}, "phone": "+14048158882", "display_phone": "(404) 815-8882", "distance": 8198.973466582222}, {"id": "WT9AEkF3BG-fEMQLC5MU7g", "alias": "hop-shing-atlanta", "name": "Hop Shing", "image_url": "https://s3-media4.fl.yelpcdn.com/bphoto/ZnyQLrna5iXZ1EfP6zeXUg/o.jpg", "is_closed": false, "url": "https://www.yelp.com/biz/hop-shing-atlanta?adjust_creative=mOQnsCAQCU1OEchZbfnYAg&utm_campaign=yelp_api_v3&utm_medium=api_v3_business_search&utm_source=mOQnsCAQCU1OEchZbfnYAg", "review_count": 101, "categories": [{"alias": "chinese", "title": "Chinese"}], "rating": 4.0, "coordinates": {"latitude": 33.8624265, "longitude": -84.2881105}, "transactions": ["delivery"], "price": "$", "location": {"address1": "2566 Shallowford Rd", "address2": "Suite 102", "address3": "", "city": "Atlanta", "zip_code": "30345", "country": "US", "state": "GA", "display_address": ["2566 Shallowford Rd", "Suite 102", "Atlanta, GA 30345"]}, "phone": "+14043299636", "display_phone": "(404) 329-9636", "distance": 9608.79516941944}], "businesses_atlanta_food": [{"id": "TDvnkXWrEj4vBfeAgDDiRQ", "alias": "postino-buckhead-atlanta-3", "name": "Postino Buckhead", "image_url": "https://s3-media1.fl.yelpcdn.com/bphoto/TcnWsJSZeKVN--ErSVrG6g/o.jpg", "is_closed": false, "url": "https://www.yelp.com/biz/postino-buckhead-atlanta-3?adjust_creative=mOQnsCAQCU1OEchZbfnYAg&utm_campaign=yelp_api_v3&utm_medium=api_v3_business_search&utm_source=mOQnsCAQCU1OEchZbfnYAg", "review_count": 81, "categories": [{"alias": "italian", "title": "Italian"}, {"alias": "wine_bars", "title": "Wine Bars"}, {"alias": "breakfast_brunch", "title": "Breakfast & Brunch"}], "rating": 4.5, "coordinates": {"latitude": 33.854680161043404, "longitude": -84.3822133}, "transactions": ["delivery", "pickup"], "price": "$$", "location": {"address1": "3655 Roswell Rd NE", "address2": "Ste 300", "address3": null, "city": "Atlanta", "zip_code": "30342", "country": "US", "state": "GA", "display_address": ["3655 Roswell Rd NE", "Ste 300", "Atlanta, GA 30342"]}, "phone": "+16786081955", "display_phone": "(678) 608-1955", "distance": 4678.63049413241}, {"id": "UOcRD1GKorZF-jemVPjbyQ", "alias": "krave-atlanta-3", "name": "Krave", "image_url": "https://s3-media4.fl.yelpcdn.com/bphoto/ZOQPvGjeZQKFcjmRKM0f5A/o.jpg", "is_closed": false, "url": "https://www.yelp.com/biz/krave-atlanta-3?adjust_creative=mOQnsCAQCU1OEchZbfnYAg&utm_campaign=yelp_api_v3&utm_medium=api_v3_business_search&utm_source=mOQnsCAQCU1OEchZbfnYAg", "review_count": 108, "categories": [{"alias": "asianfusion", "title": "Asian Fusion"}, {"alias": "bbq", "title": "Barbeque"}, {"alias": "korean", "title": "Korean"}], "rating": 5.0, "coordinates": {"latitude": 33.81099, "longitude": -84.42574}, "transactions": ["delivery", "pickup"], "price": "$$", "location": {"address1": "1170 Collier Rd", "address2": "Suite B&C", "address3": "", "city": "Atlanta", "zip_code": "30318", "country": "US", "state": "GA", "display_address": ["1170 Collier Rd", "Suite B&C", "Atlanta, GA 30318"]}, "phone": "+14042280840", "display_phone": "(404) 228-0840", "distance": 4838.666087083049}, {"id": "1OCnVm_yq2JIA-QuBjUWvQ", "alias": "twerk-chicken-decatur", "name": "Twerk Chicken", "image_url": "https://s3-media3.fl.yelpcdn.com/bphoto/5sEhSX_J7Npf1gQj85jChg/o.jpg", "is_closed": false, "url": "https://www.yelp.com/biz/twerk-chicken-decatur?adjust_creative=mOQnsCAQCU1OEchZbfnYAg&utm_campaign=yelp_api_v3&utm_medium=api_v3_business_search&utm_source=mOQnsCAQCU1OEchZbfnYAg", "review_count": 1, "categories": [{"alias": "chicken_wings", "title": "Chicken Wings"}, {"alias": "tacos", "title": "Tacos"}, {"alias": "pastashops", "title": "Pasta Shops"}], "rating": 4.0, "coordinates": {"latitude": 33.71485679159042, "longitude": -84.27352065504594}, "transactions": ["delivery", "pickup"], "location": {"address1": "2583 Candler Rd", "address2": null, "address3": "", "city": "Decatur", "zip_code": "30030", "country": "US", "state": "GA", "display_address": ["2583 Candler Rd", "Decatur, GA 30030"]}, "phone": "+14049689739", "display_phone": "(404) 968-9739", "distance": 14326.354527781205}, {"id": "GJxFtnTqTiokFedNrW9iDQ", "alias": "atlanta-breakfast-club-atlanta", "name": "Atlanta Breakfast Club", "image_url": "https://s3-media3.fl.yelpcdn.com/bphoto/xBI3goY3jhdtoWgk5_EJ9g/o.jpg", "is_closed": false, "url": "https://www.yelp.com/biz/atlanta-breakfast-club-atlanta?adjust_creative=mOQnsCAQCU1OEchZbfnYAg&utm_campaign=yelp_api_v3&utm_medium=api_v3_business_search&utm_source=mOQnsCAQCU1OEchZbfnYAg", "review_count": 6181, "categories": [{"alias": "southern", "title": "Southern"}, {"alias": "breakfast_brunch", "title": "Breakfast & Brunch"}, {"alias": "tradamerican", "title": "American (Traditional)"}], "rating": 4.5, "coordinates": {"latitude": 33.76502172531836, "longitude": -84.39540055138298}, "transactions": ["delivery", "pickup"], "price": "$$", "location": {"address1": "249 Ivan Allen Jr Blvd", "address2": "", "address3": "", "city": "Atlanta", "zip_code": "30313", "country": "US", "state": "GA", "display_address": ["249 Ivan Allen Jr Blvd", "Atlanta, GA 30313"]}, "phone": "+14704283825", "display_phone": "(470) 428-3825", "distance": 5723.969207687393}, {"id": "I_2j9fQFyQjx_TdBIuItTw", "alias": "the-greedy-bunch-atlanta", "name": "The Greedy Bunch", "image_url": "https://s3-media1.fl.yelpcdn.com/bphoto/L3ROWBcvBr7XQuK-tznv9A/o.jpg", "is_closed": false, "url": "https://www.yelp.com/biz/the-greedy-bunch-atlanta?adjust_creative=mOQnsCAQCU1OEchZbfnYAg&utm_campaign=yelp_api_v3&utm_medium=api_v3_business_search&utm_source=mOQnsCAQCU1OEchZbfnYAg", "review_count": 10, "categories": [{"alias": "african", "title": "African"}, {"alias": "chicken_wings", "title": "Chicken Wings"}, {"alias": "wraps", "title": "Wraps"}], "rating": 5.0, "coordinates": {"latitude": 33.785933, "longitude": -84.400863}, "transactions": ["delivery", "pickup"], "location": {"address1": "420 14th St Nw", "address2": null, "address3": "", "city": "Atlanta", "zip_code": "30318", "country": "US", "state": "GA", "display_address": ["420 14th St Nw", "Atlanta, GA 30318"]}, "phone": "+14043009339", "display_phone": "(404) 300-9339", "distance": 3942.237473032521}, {"id": "lGDHzx8L-ZjTUh6ch2ar9g", "alias": "southern-kitchen-and-grill-atlanta", "name": "Southern Kitchen & Grill", "image_url": "https://s3-media2.fl.yelpcdn.com/bphoto/yg3jSZAJFLfJmPsrE4LUeg/o.jpg", "is_closed": false, "url": "https://www.yelp.com/biz/southern-kitchen-and-grill-atlanta?adjust_creative=mOQnsCAQCU1OEchZbfnYAg&utm_campaign=yelp_api_v3&utm_medium=api_v3_business_search&utm_source=mOQnsCAQCU1OEchZbfnYAg", "review_count": 302, "categories": [{"alias": "southern", "title": "Southern"}, {"alias": "soulfood", "title": "Soul Food"}, {"alias": "tradamerican", "title": "American (Traditional)"}], "rating": 4.5, "coordinates": {"latitude": 33.88625820727653, "longitude": -84.2655890062451}, "transactions": ["delivery", "pickup"], "price": "$$", "location": {"address1": "3781 Presidential Pkwy", "address2": "Ste 306", "address3": null, "city": "Atlanta", "zip_code": "30340", "country": "US", "state": "GA", "display_address": ["3781 Presidential Pkwy", "Ste 306", "Atlanta, GA 30340"]}, "phone": "+16786941098", "display_phone": "(678) 694-1098", "distance": 12865.117701757405}, {"id": "MurtZ-WliuMff45w47zbYg", "alias": "smoky-kitchen-bbq-atlanta", "name": "Smoky Kitchen BBQ", "image_url": "https://s3-media4.fl.yelpcdn.com/bphoto/m0Rp8R5MkYQV2NKo0Ws47Q/o.jpg", "is_closed": false, "url": "https://www.yelp.com/biz/smoky-kitchen-bbq-atlanta?adjust_creative=mOQnsCAQCU1OEchZbfnYAg&utm_campaign=yelp_api_v3&utm_medium=api_v3_business_search&utm_source=mOQnsCAQCU1OEchZbfnYAg", "review_count": 9, "categories": [{"alias": "bbq", "title": "Barbeque"}, {"alias": "streetvendors", "title": "Street Vendors"}], "rating": 5.0, "coordinates": {"latitude": 33.752875884474, "longitude": -84.3821049111214}, "transactions": ["delivery"], "location": {"address1": "52 Armstrong St SE", "address2": "", "address3": null, "city": "Atlanta", "zip_code": "30313", "country": "US", "state": "GA", "display_address": ["52 Armstrong St SE", "Atlanta, GA 30313"]}, "phone": "+16785168489", "display_phone": "(678) 516-8489", "distance": 6766.073229061433}, {"id": "ZbqsKgoo1zdckzFP0RgX_A", "alias": "velvet-taco-atlanta-2", "name": "Velvet Taco", "image_url": "https://s3-media2.fl.yelpcdn.com/bphoto/8iQbICUk-h-uicS5dxfXOQ/o.jpg", "is_closed": false, "url": "https://www.yelp.com/biz/velvet-taco-atlanta-2?adjust_creative=mOQnsCAQCU1OEchZbfnYAg&utm_campaign=yelp_api_v3&utm_medium=api_v3_business_search&utm_source=mOQnsCAQCU1OEchZbfnYAg", "review_count": 450, "categories": [{"alias": "tacos", "title": "Tacos"}, {"alias": "newamerican", "title": "American (New)"}, {"alias": "vegetarian", "title": "Vegetarian"}], "rating": 4.0, "coordinates": {"latitude": 33.84011, "longitude": -84.38107}, "transactions": ["delivery", "pickup"], "price": "$$", "location": {"address1": "77 W Paces Ferry Rd NW", "address2": "Ste 35A", "address3": null, "city": "Atlanta", "zip_code": "30305", "country": "US", "state": "GA", "display_address": ["77 W Paces Ferry Rd NW", "Ste 35A", "Atlanta, GA 30305"]}, "phone": "+14704003900", "display_phone": "(470) 400-3900", "distance": 3068.807218442547}, {"id": "Ib800wLfNe0SKS9vVtMSaA", "alias": "the-bando-atlanta", "name": "The Bando", "image_url": "https://s3-media4.fl.yelpcdn.com/bphoto/HFvvKucuZyHxSOEpDOMoqA/o.jpg", "is_closed": false, "url": "https://www.yelp.com/biz/the-bando-atlanta?adjust_creative=mOQnsCAQCU1OEchZbfnYAg&utm_campaign=yelp_api_v3&utm_medium=api_v3_business_search&utm_source=mOQnsCAQCU1OEchZbfnYAg", "review_count": 127, "categories": [{"alias": "chicken_wings", "title": "Chicken Wings"}, {"alias": "museums", "title": "Museums"}], "rating": 4.0, "coordinates": {"latitude": 33.751593122745696, "longitude": -84.48724207354398}, "transactions": ["delivery", "pickup"], "price": "$$", "location": {"address1": "3050 Martin Luther King Jr Dr Sw", "address2": "Ste M", "address3": null, "city": "Atlanta", "zip_code": "30311", "country": "US", "state": "GA", "display_address": ["3050 Martin Luther King Jr Dr Sw", "Ste M", "Atlanta, GA 30311"]}, "phone": "", "display_phone": "", "distance": 12538.132587805743}, {"id": "qDL_cyl2JbbHDoiFPrn4yQ", "alias": "southern-fire-kitchen-no-title", "name": "Southern Fire Kitchen", "image_url": "https://s3-media3.fl.yelpcdn.com/bphoto/Puud-da1MT9scVMsLYsrnQ/o.jpg", "is_closed": false, "url": "https://www.yelp.com/biz/southern-fire-kitchen-no-title?adjust_creative=mOQnsCAQCU1OEchZbfnYAg&utm_campaign=yelp_api_v3&utm_medium=api_v3_business_search&utm_source=mOQnsCAQCU1OEchZbfnYAg", "review_count": 106, "categories": [{"alias": "southern", "title": "Southern"}, {"alias": "newamerican", "title": "American (New)"}, {"alias": "soulfood", "title": "Soul Food"}], "rating": 4.0, "coordinates": {"latitude": 33.84314, "longitude": -84.32838}, "transactions": [], "location": {"address1": "3375 Buford Hwy NE", "address2": "Ste 1050", "address3": "", "city": "Atlanta", "zip_code": "30329", "country": "US", "state": "GA", "display_address": ["3375 Buford Hwy NE", "Ste 1050", "Atlanta, GA 30329"]}, "phone": "+14049637594", "display_phone": "(404) 963-7594", "distance": 5428.139557965966}, {"id": "PCizbtQa1UZVT1WsUc6Ikw", "alias": "mattchews-atlanta", "name": "MattChews", "image_url": "https://s3-media1.fl.yelpcdn.com/bphoto/14Dzp2_zAkM_Uyc1USz_lQ/o.jpg", "is_closed": false, "url": "https://www.yelp.com/biz/mattchews-atlanta?adjust_creative=mOQnsCAQCU1OEchZbfnYAg&utm_campaign=yelp_api_v3&utm_medium=api_v3_business_search&utm_source=mOQnsCAQCU1OEchZbfnYAg", "review_count": 99, "categories": [{"alias": "sandwiches", "title": "Sandwiches"}, {"alias": "tradamerican", "title": "American (Traditional)"}, {"alias": "cheesesteaks", "title": "Cheesesteaks"}], "rating": 4.5, "coordinates": {"latitude": 33.7959853, "longitude": -84.41390743168769}, "transactions": ["delivery", "pickup"], "location": {"address1": "800 Forrest St NW", "address2": null, "address3": "", "city": "Atlanta", "zip_code": "30318", "country": "US", "state": "GA", "display_address": ["800 Forrest St NW", "Atlanta, GA 30318"]}, "phone": "+16788638597", "display_phone": "(678) 863-8597", "distance": 4185.85425200193}, {"id": "viqkunBBI6QOIZehME-7gg", "alias": "hattie-bs-hot-chicken-atlanta-east-atlanta-3", "name": "Hattie B's Hot Chicken - Atlanta East", "image_url": "https://s3-media2.fl.yelpcdn.com/bphoto/KiolANNcATABZ7_me656Aw/o.jpg", "is_closed": false, "url": "https://www.yelp.com/biz/hattie-bs-hot-chicken-atlanta-east-atlanta-3?adjust_creative=mOQnsCAQCU1OEchZbfnYAg&utm_campaign=yelp_api_v3&utm_medium=api_v3_business_search&utm_source=mOQnsCAQCU1OEchZbfnYAg", "review_count": 2039, "categories": [{"alias": "chickenshop", "title": "Chicken Shop"}, {"alias": "chicken_wings", "title": "Chicken Wings"}, {"alias": "sandwiches", "title": "Sandwiches"}], "rating": 4.5, "coordinates": {"latitude": 33.7624, "longitude": -84.34882}, "transactions": ["delivery"], "price": "$$", "location": {"address1": "299 Moreland Ave NE", "address2": null, "address3": "", "city": "Atlanta", "zip_code": "30307", "country": "US", "state": "GA", "display_address": ["299 Moreland Ave NE", "Atlanta, GA 30307"]}, "phone": "+16789905100", "display_phone": "(678) 990-5100", "distance": 6115.087230167963}, {"id": "J6k8zpwsCoR6ieeYu5QUWw", "alias": "casa-almenara-atlanta", "name": "Casa Almenara", "image_url": "https://s3-media4.fl.yelpcdn.com/bphoto/8NZ4Y4V_-ShTPJXTUYgP1A/o.jpg", "is_closed": false, "url": "https://www.yelp.com/biz/casa-almenara-atlanta?adjust_creative=mOQnsCAQCU1OEchZbfnYAg&utm_campaign=yelp_api_v3&utm_medium=api_v3_business_search&utm_source=mOQnsCAQCU1OEchZbfnYAg", "review_count": 30, "categories": [{"alias": "mexican", "title": "Mexican"}], "rating": 4.0, "coordinates": {"latitude": 33.781634, "longitude": -84.380308}, "transactions": ["delivery", "pickup"], "location": {"address1": "991 Piedmont Ave NE", "address2": "", "address3": null, "city": "Atlanta", "zip_code": "30309", "country": "US", "state": "GA", "display_address": ["991 Piedmont Ave NE", "Atlanta, GA 30309"]}, "phone": "+14046025510", "display_phone": "(404) 602-5510", "distance": 3564.4689289964276}, {"id": "ZSLZNh1K_WzQc7g9imj9pA", "alias": "mr-fries-man-atlanta", "name": "Mr Fries Man", "image_url": "https://s3-media1.fl.yelpcdn.com/bphoto/BBhU5HkFNe0dmQWUq3pp0g/o.jpg", "is_closed": false, "url": "https://www.yelp.com/biz/mr-fries-man-atlanta?adjust_creative=mOQnsCAQCU1OEchZbfnYAg&utm_campaign=yelp_api_v3&utm_medium=api_v3_business_search&utm_source=mOQnsCAQCU1OEchZbfnYAg", "review_count": 57, "categories": [{"alias": "tradamerican", "title": "American (Traditional)"}, {"alias": "hotdogs", "title": "Fast Food"}], "rating": 4.0, "coordinates": {"latitude": 33.75395, "longitude": -84.3884}, "transactions": ["delivery", "pickup"], "price": "$$", "location": {"address1": "30 Decatur St SE", "address2": null, "address3": "", "city": "Atlanta", "zip_code": "30303", "country": "US", "state": "GA", "display_address": ["30 Decatur St SE", "Atlanta, GA 30303"]}, "phone": "", "display_phone": "", "distance": 6742.529011042133}, {"id": "WXIer1X3GtLZiAVXX8TV5Q", "alias": "rreal-tacos-midtown-atlanta-2", "name": "Rreal Tacos - Midtown ", "image_url": "https://s3-media2.fl.yelpcdn.com/bphoto/YjA1a6VPBpSobuLel7XaVg/o.jpg", "is_closed": false, "url": "https://www.yelp.com/biz/rreal-tacos-midtown-atlanta-2?adjust_creative=mOQnsCAQCU1OEchZbfnYAg&utm_campaign=yelp_api_v3&utm_medium=api_v3_business_search&utm_source=mOQnsCAQCU1OEchZbfnYAg", "review_count": 695, "categories": [{"alias": "tacos", "title": "Tacos"}, {"alias": "catering", "title": "Caterers"}], "rating": 4.0, "coordinates": {"latitude": 33.7774837176681, "longitude": -84.38346134905734}, "transactions": ["delivery", "pickup"], "price": "$$", "location": {"address1": "100 6th St NE", "address2": "Ste 110", "address3": "", "city": "Atlanta", "zip_code": "30308", "country": "US", "state": "GA", "display_address": ["100 6th St NE", "Ste 110", "Atlanta, GA 30308"]}, "phone": "+14044585887", "display_phone": "(404) 458-5887", "distance": 4075.537349389666}, {"id": "F0eaHDnN_-zF7KPZu1a2NQ", "alias": "industry-tavern-atlanta", "name": "Industry Tavern", "image_url": "https://s3-media3.fl.yelpcdn.com/bphoto/64D4laOOze5W52slwcVjQQ/o.jpg", "is_closed": false, "url": "https://www.yelp.com/biz/industry-tavern-atlanta?adjust_creative=mOQnsCAQCU1OEchZbfnYAg&utm_campaign=yelp_api_v3&utm_medium=api_v3_business_search&utm_source=mOQnsCAQCU1OEchZbfnYAg", "review_count": 645, "categories": [{"alias": "newamerican", "title": "American (New)"}, {"alias": "sportsbars", "title": "Sports Bars"}, {"alias": "pizza", "title": "Pizza"}], "rating": 4.0, "coordinates": {"latitude": 33.8452336367562, "longitude": -84.3712960294998}, "transactions": ["delivery", "pickup"], "price": "$$", "location": {"address1": "3280 Peachtree Rd NE", "address2": "Ste 185", "address3": "", "city": "Atlanta", "zip_code": "30305", "country": "US", "state": "GA", "display_address": ["3280 Peachtree Rd NE", "Ste 185", "Atlanta, GA 30305"]}, "phone": "+14042544468", "display_phone": "(404) 254-4468", "distance": 3567.0180020911243}, {"id": "n_0-Q-A7rzHP0L3TpcC6Ag", "alias": "tenya-japanese-eatery-decatur", "name": "Tenya Japanese Eatery", "image_url": "https://s3-media3.fl.yelpcdn.com/bphoto/EA9CpiazI2vOMDzSgnTvfA/o.jpg", "is_closed": false, "url": "https://www.yelp.com/biz/tenya-japanese-eatery-decatur?adjust_creative=mOQnsCAQCU1OEchZbfnYAg&utm_campaign=yelp_api_v3&utm_medium=api_v3_business_search&utm_source=mOQnsCAQCU1OEchZbfnYAg", "review_count": 112, "categories": [{"alias": "japanese", "title": "Japanese"}], "rating": 4.5, "coordinates": {"latitude": 33.79100892042843, "longitude": -84.30718105952774}, "transactions": ["delivery", "pickup"], "location": {"address1": "2064 N Decatur Rd", "address2": "", "address3": null, "city": "Decatur", "zip_code": "30033", "country": "US", "state": "GA", "display_address": ["2064 N Decatur Rd", "Decatur, GA 30033"]}, "phone": "+16787231388", "display_phone": "(678) 723-1388", "distance": 6617.357166566504}, {"id": "V86AJK3xytBv2C0bwi9_Ow", "alias": "la-pastorcita-atlanta", "name": "La Pastorcita", "image_url": "https://s3-media2.fl.yelpcdn.com/bphoto/QwqXsI272ixNJHRHEasjlg/o.jpg", "is_closed": false, "url": "https://www.yelp.com/biz/la-pastorcita-atlanta?adjust_creative=mOQnsCAQCU1OEchZbfnYAg&utm_campaign=yelp_api_v3&utm_medium=api_v3_business_search&utm_source=mOQnsCAQCU1OEchZbfnYAg", "review_count": 487, "categories": [{"alias": "mexican", "title": "Mexican"}], "rating": 4.0, "coordinates": {"latitude": 33.84308, "longitude": -84.32924}, "transactions": ["delivery", "pickup"], "price": "$", "location": {"address1": "3304 Buford Hwy NE", "address2": "", "address3": "", "city": "Atlanta", "zip_code": "30329", "country": "US", "state": "GA", "display_address": ["3304 Buford Hwy NE", "Atlanta, GA 30329"]}, "phone": "+16787058162", "display_phone": "(678) 705-8162", "distance": 5273.556144162646}, {"id": "Kcva2t7e6Ukpb5vMvkdc2w", "alias": "la-fonda-latina-atlanta-4", "name": "La Fonda Latina", "image_url": "https://s3-media2.fl.yelpcdn.com/bphoto/LPHKjp8M7Gc3GrZjwOHEPA/o.jpg", "is_closed": false, "url": "https://www.yelp.com/biz/la-fonda-latina-atlanta-4?adjust_creative=mOQnsCAQCU1OEchZbfnYAg&utm_campaign=yelp_api_v3&utm_medium=api_v3_business_search&utm_source=mOQnsCAQCU1OEchZbfnYAg", "review_count": 526, "categories": [{"alias": "cuban", "title": "Cuban"}], "rating": 4.0, "coordinates": {"latitude": 33.773503, "longitude": -84.357113}, "transactions": ["delivery"], "price": "$$", "location": {"address1": "923 Ponce De Leon Ave NE", "address2": "", "address3": "", "city": "Atlanta", "zip_code": "30306", "country": "US", "state": "GA", "display_address": ["923 Ponce De Leon Ave NE", "Atlanta, GA 30306"]}, "phone": "+14046070665", "display_phone": "(404) 607-0665", "distance": 4671.814022351921}, {"id": "Tjgp7DWBwrgMrQE7_5ivZg", "alias": "ginos-ny-pizza-bar-atlanta", "name": "Gino's NY Pizza Bar", "image_url": "https://s3-media4.fl.yelpcdn.com/bphoto/upNSjRkXwGOPhX5UtYwoSg/o.jpg", "is_closed": false, "url": "https://www.yelp.com/biz/ginos-ny-pizza-bar-atlanta?adjust_creative=mOQnsCAQCU1OEchZbfnYAg&utm_campaign=yelp_api_v3&utm_medium=api_v3_business_search&utm_source=mOQnsCAQCU1OEchZbfnYAg", "review_count": 415, "categories": [{"alias": "pizza", "title": "Pizza"}, {"alias": "italian", "title": "Italian"}, {"alias": "pastashops", "title": "Pasta Shops"}], "rating": 3.0, "coordinates": {"latitude": 33.80831, "longitude": -84.36558}, "transactions": ["delivery", "pickup"], "price": "$$", "location": {"address1": "1740 Cheshire Bridge Rd", "address2": "", "address3": "", "city": "Atlanta", "zip_code": "30324", "country": "US", "state": "GA", "display_address": ["1740 Cheshire Bridge Rd", "Atlanta, GA 30324"]}, "phone": "+14048744466", "display_phone": "(404) 874-4466", "distance": 928.3191976874655}, {"id": "1xI4mUtUiXsWWHnE38yMww", "alias": "moonbowls-atlanta", "name": "moonbowls", "image_url": "https://s3-media2.fl.yelpcdn.com/bphoto/2N7QXRGgOXnvtae9q1SX7w/o.jpg", "is_closed": false, "url": "https://www.yelp.com/biz/moonbowls-atlanta?adjust_creative=mOQnsCAQCU1OEchZbfnYAg&utm_campaign=yelp_api_v3&utm_medium=api_v3_business_search&utm_source=mOQnsCAQCU1OEchZbfnYAg", "review_count": 86, "categories": [{"alias": "korean", "title": "Korean"}, {"alias": "gluten_free", "title": "Gluten-Free"}, {"alias": "catering", "title": "Caterers"}], "rating": 4.0, "coordinates": {"latitude": 33.7959650227681, "longitude": -84.41395994173419}, "transactions": ["delivery", "pickup"], "location": {"address1": "800 Forrest St NW", "address2": null, "address3": "", "city": "Atlanta", "zip_code": "30318", "country": "US", "state": "GA", "display_address": ["800 Forrest St NW", "Atlanta, GA 30318"]}, "phone": "+13239874617", "display_phone": "(323) 987-4617", "distance": 4191.200353435819}, {"id": "uXdQkuEtvLAzfc3MsO-sTQ", "alias": "mamas-cocina-latina-atlanta", "name": "Mama's Cocina Latina", "image_url": "https://s3-media2.fl.yelpcdn.com/bphoto/_G5Kzlxf5jgM6KCk7EZBrA/o.jpg", "is_closed": false, "url": "https://www.yelp.com/biz/mamas-cocina-latina-atlanta?adjust_creative=mOQnsCAQCU1OEchZbfnYAg&utm_campaign=yelp_api_v3&utm_medium=api_v3_business_search&utm_source=mOQnsCAQCU1OEchZbfnYAg", "review_count": 246, "categories": [{"alias": "mexican", "title": "Mexican"}, {"alias": "latin", "title": "Latin American"}], "rating": 3.0, "coordinates": {"latitude": 33.810996, "longitude": -84.367084}, "transactions": ["delivery"], "price": "$$", "location": {"address1": "1958 Piedmont Rd NE", "address2": "", "address3": "", "city": "Atlanta", "zip_code": "30324", "country": "US", "state": "GA", "display_address": ["1958 Piedmont Rd NE", "Atlanta, GA 30324"]}, "phone": "+14048746152", "display_phone": "(404) 874-6152", "distance": 652.8092610175252}, {"id": "y9F-Aso24hNzbUvZNiv1MQ", "alias": "urban-hai-atlanta", "name": "Urban Hai", "image_url": "https://s3-media2.fl.yelpcdn.com/bphoto/Ler_ycDNH1CfqWrgByCdhQ/o.jpg", "is_closed": false, "url": "https://www.yelp.com/biz/urban-hai-atlanta?adjust_creative=mOQnsCAQCU1OEchZbfnYAg&utm_campaign=yelp_api_v3&utm_medium=api_v3_business_search&utm_source=mOQnsCAQCU1OEchZbfnYAg", "review_count": 78, "categories": [{"alias": "chinese", "title": "Chinese"}, {"alias": "tapasmallplates", "title": "Tapas/Small Plates"}], "rating": 4.5, "coordinates": {"latitude": 33.78413405721858, "longitude": -84.38461273063074}, "transactions": ["delivery", "pickup"], "price": "$$", "location": {"address1": "77 12th St NE", "address2": "Ste 7", "address3": "", "city": "Atlanta", "zip_code": "30309", "country": "US", "state": "GA", "display_address": ["77 12th St NE", "Ste 7", "Atlanta, GA 30309"]}, "phone": "+14045498181", "display_phone": "(404) 549-8181", "distance": 3389.046879003133}, {"id": "BSUDAiXd50PAkfFAztVpDw", "alias": "aviva-by-kameel-atlanta-atlanta", "name": "Aviva by Kameel - Atlanta", "image_url": "https://s3-media1.fl.yelpcdn.com/bphoto/5P3eyDa8bMZvBIZspI2hhQ/o.jpg", "is_closed": false, "url": "https://www.yelp.com/biz/aviva-by-kameel-atlanta-atlanta?adjust_creative=mOQnsCAQCU1OEchZbfnYAg&utm_campaign=yelp_api_v3&utm_medium=api_v3_business_search&utm_source=mOQnsCAQCU1OEchZbfnYAg", "review_count": 1735, "categories": [{"alias": "mediterranean", "title": "Mediterranean"}, {"alias": "mideastern", "title": "Middle Eastern"}], "rating": 5.0, "coordinates": {"latitude": 33.7605381455292, "longitude": -84.3865554648041}, "transactions": ["delivery", "pickup"], "price": "$$", "location": {"address1": "225 Peachtree St NE", "address2": "Ste B-30", "address3": "", "city": "Atlanta", "zip_code": "30303", "country": "US", "state": "GA", "display_address": ["225 Peachtree St NE", "Ste B-30", "Atlanta, GA 30303"]}, "phone": "+14046983600", "display_phone": "(404) 698-3600", "distance": 5977.806964249143}, {"id": "8mA_L2Fb21p0ZqfpnegioA", "alias": "spaceman-atlanta", "name": "Spaceman", "image_url": "https://s3-media1.fl.yelpcdn.com/bphoto/SJEhvybeTkLXQFEop1T3iw/o.jpg", "is_closed": false, "url": "https://www.yelp.com/biz/spaceman-atlanta?adjust_creative=mOQnsCAQCU1OEchZbfnYAg&utm_campaign=yelp_api_v3&utm_medium=api_v3_business_search&utm_source=mOQnsCAQCU1OEchZbfnYAg", "review_count": 45, "categories": [{"alias": "bars", "title": "Bars"}, {"alias": "salad", "title": "Salad"}, {"alias": "chicken_wings", "title": "Chicken Wings"}], "rating": 4.5, "coordinates": {"latitude": 33.8457312, "longitude": -84.3585303}, "transactions": [], "location": {"address1": "3301 Lenox Pkwy", "address2": "", "address3": null, "city": "Atlanta", "zip_code": "30326", "country": "US", "state": "GA", "display_address": ["3301 Lenox Pkwy", "Atlanta, GA 30326"]}, "phone": "", "display_phone": "", "distance": 3624.605280687938}, {"id": "oGshUJhbJsjsnaQZXJaDNA", "alias": "waikikie-hawaiian-bbq-atlanta", "name": "Waikikie Hawaiian BBQ", "image_url": "https://s3-media3.fl.yelpcdn.com/bphoto/3HMuH3f6Co32STVpUyHx2Q/o.jpg", "is_closed": false, "url": "https://www.yelp.com/biz/waikikie-hawaiian-bbq-atlanta?adjust_creative=mOQnsCAQCU1OEchZbfnYAg&utm_campaign=yelp_api_v3&utm_medium=api_v3_business_search&utm_source=mOQnsCAQCU1OEchZbfnYAg", "review_count": 642, "categories": [{"alias": "bbq", "title": "Barbeque"}, {"alias": "hawaiian", "title": "Hawaiian"}], "rating": 4.0, "coordinates": {"latitude": 33.816665, "longitude": -84.335219}, "transactions": ["delivery", "pickup"], "price": "$$", "location": {"address1": "2160 Briarcliff Rd", "address2": null, "address3": "", "city": "Atlanta", "zip_code": "30329", "country": "US", "state": "GA", "display_address": ["2160 Briarcliff Rd", "Atlanta, GA 30329"]}, "phone": "+14046381115", "display_phone": "(404) 638-1115", "distance": 3568.9968688087233}, {"id": "S6pc488qCzUKLGwXDvCUoQ", "alias": "aamar-indian-cuisine-atlanta", "name": "Aamar Indian Cuisine", "image_url": "https://s3-media2.fl.yelpcdn.com/bphoto/xlcpZ6k51_mNgFhyi1S0Yg/o.jpg", "is_closed": false, "url": "https://www.yelp.com/biz/aamar-indian-cuisine-atlanta?adjust_creative=mOQnsCAQCU1OEchZbfnYAg&utm_campaign=yelp_api_v3&utm_medium=api_v3_business_search&utm_source=mOQnsCAQCU1OEchZbfnYAg", "review_count": 579, "categories": [{"alias": "indpak", "title": "Indian"}], "rating": 4.5, "coordinates": {"latitude": 33.757311, "longitude": -84.389912}, "transactions": ["delivery", "pickup"], "price": "$$", "location": {"address1": "100 Luckie St NW", "address2": "", "address3": "", "city": "Atlanta", "zip_code": "30303", "country": "US", "state": "GA", "display_address": ["100 Luckie St NW", "Atlanta, GA 30303"]}, "phone": "+14047504224", "display_phone": "(404) 750-4224", "distance": 6395.631806958706}, {"id": "U-i6cq-yFRVJC4pIKSLX9Q", "alias": "poor-calvins-atlanta-15", "name": "Poor Calvin's", "image_url": "https://s3-media3.fl.yelpcdn.com/bphoto/OqNT3uMiq-ZvhkPmJz_2eA/o.jpg", "is_closed": false, "url": "https://www.yelp.com/biz/poor-calvins-atlanta-15?adjust_creative=mOQnsCAQCU1OEchZbfnYAg&utm_campaign=yelp_api_v3&utm_medium=api_v3_business_search&utm_source=mOQnsCAQCU1OEchZbfnYAg", "review_count": 4370, "categories": [{"alias": "asianfusion", "title": "Asian Fusion"}, {"alias": "southern", "title": "Southern"}, {"alias": "comfortfood", "title": "Comfort Food"}], "rating": 4.5, "coordinates": {"latitude": 33.7684, "longitude": -84.38226}, "transactions": ["delivery", "pickup"], "price": "$$$", "location": {"address1": "510 Piedmont Ave NE", "address2": null, "address3": "", "city": "Atlanta", "zip_code": "30308", "country": "US", "state": "GA", "display_address": ["510 Piedmont Ave NE", "Atlanta, GA 30308"]}, "phone": "+14042544051", "display_phone": "(404) 254-4051", "distance": 5039.379976493792}, {"id": "hGPhnEi-ExrbsrmQ7bDYTw", "alias": "mamis-empanadas-atlanta", "name": "Mami's Empanadas", "image_url": "https://s3-media4.fl.yelpcdn.com/bphoto/jKF02hGrLFvJLfbzuzKAzQ/o.jpg", "is_closed": false, "url": "https://www.yelp.com/biz/mamis-empanadas-atlanta?adjust_creative=mOQnsCAQCU1OEchZbfnYAg&utm_campaign=yelp_api_v3&utm_medium=api_v3_business_search&utm_source=mOQnsCAQCU1OEchZbfnYAg", "review_count": 4, "categories": [{"alias": "popuprestaurants", "title": "Pop-Up Restaurants"}, {"alias": "empanadas", "title": "Empanadas"}], "rating": 5.0, "coordinates": {"latitude": 33.79241851538346, "longitude": -84.44788330444645}, "transactions": [], "location": {"address1": "", "address2": "", "address3": null, "city": "Atlanta", "zip_code": "30318", "country": "US", "state": "GA", "display_address": ["Atlanta, GA 30318"]}, "phone": "+17708156680", "display_phone": "(770) 815-6680", "distance": 7240.314207944987}, {"id": "B_6V-u97NU8aai4mrKqwNw", "alias": "silverlake-ramen-atlanta", "name": "Silverlake Ramen", "image_url": "https://s3-media2.fl.yelpcdn.com/bphoto/eqKrQpHUFIIUT_LaeILkGw/o.jpg", "is_closed": false, "url": "https://www.yelp.com/biz/silverlake-ramen-atlanta?adjust_creative=mOQnsCAQCU1OEchZbfnYAg&utm_campaign=yelp_api_v3&utm_medium=api_v3_business_search&utm_source=mOQnsCAQCU1OEchZbfnYAg", "review_count": 157, "categories": [{"alias": "ramen", "title": "Ramen"}], "rating": 4.0, "coordinates": {"latitude": 33.78342287706572, "longitude": -84.38425209927034}, "transactions": ["delivery", "pickup"], "price": "$$", "location": {"address1": "1080 Peachtree St NE", "address2": "Ste 9", "address3": "", "city": "Atlanta", "zip_code": "30309", "country": "US", "state": "GA", "display_address": ["1080 Peachtree St NE", "Ste 9", "Atlanta, GA 30309"]}, "phone": "+14043903362", "display_phone": "(404) 390-3362", "distance": 3454.960685255686}, {"id": "wz6WkHmnv0xYFIsELh5tCg", "alias": "adobo-atlanta", "name": "Adobo", "image_url": "https://s3-media3.fl.yelpcdn.com/bphoto/dXq7KwI4W32mIQLkCzI6vw/o.jpg", "is_closed": false, "url": "https://www.yelp.com/biz/adobo-atlanta?adjust_creative=mOQnsCAQCU1OEchZbfnYAg&utm_campaign=yelp_api_v3&utm_medium=api_v3_business_search&utm_source=mOQnsCAQCU1OEchZbfnYAg", "review_count": 8, "categories": [{"alias": "filipino", "title": "Filipino"}, {"alias": "popuprestaurants", "title": "Pop-Up Restaurants"}], "rating": 5.0, "coordinates": {"latitude": 33.7554893493652, "longitude": -84.3906097412109}, "transactions": [], "location": {"address1": "", "address2": "", "address3": "", "city": "Atlanta", "zip_code": "30301", "country": "US", "state": "GA", "display_address": ["Atlanta, GA 30301"]}, "phone": "+14046181656", "display_phone": "(404) 618-1656", "distance": 6107.2643495799675}, {"id": "yXYfIc56MqH856emYacqAQ", "alias": "scotchies-atlanta", "name": "Scotchie's", "image_url": "https://s3-media1.fl.yelpcdn.com/bphoto/7_6iCslyX3IDkwkFEDaR_Q/o.jpg", "is_closed": false, "url": "https://www.yelp.com/biz/scotchies-atlanta?adjust_creative=mOQnsCAQCU1OEchZbfnYAg&utm_campaign=yelp_api_v3&utm_medium=api_v3_business_search&utm_source=mOQnsCAQCU1OEchZbfnYAg", "review_count": 36, "categories": [{"alias": "caribbean", "title": "Caribbean"}, {"alias": "seafood", "title": "Seafood"}], "rating": 4.0, "coordinates": {"latitude": 33.840762, "longitude": -84.3783858}, "transactions": ["delivery", "pickup"], "location": {"address1": "3122 Peachtree Rd", "address2": "", "address3": null, "city": "Atlanta", "zip_code": "30305", "country": "US", "state": "GA", "display_address": ["3122 Peachtree Rd", "Atlanta, GA 30305"]}, "phone": "+14044828616", "display_phone": "(404) 482-8616", "distance": 3082.0691259045375}, {"id": "vgUv079XkNbWOtBf3tYKnw", "alias": "the-hungry-peach-atlanta-2", "name": "The Hungry Peach", "image_url": "https://s3-media1.fl.yelpcdn.com/bphoto/ltVT3W39EoruMzj1RVbjEg/o.jpg", "is_closed": false, "url": "https://www.yelp.com/biz/the-hungry-peach-atlanta-2?adjust_creative=mOQnsCAQCU1OEchZbfnYAg&utm_campaign=yelp_api_v3&utm_medium=api_v3_business_search&utm_source=mOQnsCAQCU1OEchZbfnYAg", "review_count": 64, "categories": [{"alias": "catering", "title": "Caterers"}, {"alias": "cupcakes", "title": "Cupcakes"}, {"alias": "cafes", "title": "Cafes"}], "rating": 4.5, "coordinates": {"latitude": 33.817, "longitude": -84.37502}, "transactions": ["delivery"], "price": "$$", "location": {"address1": "351 Peachtree Hills Ave NE", "address2": "Ste 232", "address3": null, "city": "Atlanta", "zip_code": "30305", "country": "US", "state": "GA", "display_address": ["351 Peachtree Hills Ave NE", "Ste 232", "Atlanta, GA 30305"]}, "phone": "+14048169009", "display_phone": "(404) 816-9009", "distance": 429.5759274516273}, {"id": "xakTfx650TBYn3IALjPZDg", "alias": "mukja-korean-fried-chicken-atlanta", "name": "Mukja Korean Fried Chicken", "image_url": "https://s3-media4.fl.yelpcdn.com/bphoto/WOscmsyvWpje7us_9XPsZA/o.jpg", "is_closed": false, "url": "https://www.yelp.com/biz/mukja-korean-fried-chicken-atlanta?adjust_creative=mOQnsCAQCU1OEchZbfnYAg&utm_campaign=yelp_api_v3&utm_medium=api_v3_business_search&utm_source=mOQnsCAQCU1OEchZbfnYAg", "review_count": 280, "categories": [{"alias": "korean", "title": "Korean"}, {"alias": "southern", "title": "Southern"}], "rating": 4.5, "coordinates": {"latitude": 33.78066268471015, "longitude": -84.38366420248812}, "transactions": ["delivery", "pickup"], "price": "$$", "location": {"address1": "933 Peachtree St", "address2": "Ste 951", "address3": "", "city": "Atlanta", "zip_code": "30309", "country": "US", "state": "GA", "display_address": ["933 Peachtree St", "Ste 951", "Atlanta, GA 30309"]}, "phone": "+14048555516", "display_phone": "(404) 855-5516", "distance": 3736.3900883216884}, {"id": "mMq5VR9qKzwuZgs0uKE6KQ", "alias": "da-spot-bistro-no-title", "name": "Da Spot Bistro", "image_url": "https://s3-media2.fl.yelpcdn.com/bphoto/MJyDH791XfRZO8QYUkfiHw/o.jpg", "is_closed": false, "url": "https://www.yelp.com/biz/da-spot-bistro-no-title?adjust_creative=mOQnsCAQCU1OEchZbfnYAg&utm_campaign=yelp_api_v3&utm_medium=api_v3_business_search&utm_source=mOQnsCAQCU1OEchZbfnYAg", "review_count": 2, "categories": [{"alias": "newamerican", "title": "American (New)"}, {"alias": "hookah_bars", "title": "Hookah Bars"}, {"alias": "danceclubs", "title": "Dance Clubs"}], "rating": 4.0, "coordinates": {"latitude": 33.83109, "longitude": -84.34203}, "transactions": [], "location": {"address1": "2839 Buford Hwy NE", "address2": null, "address3": "", "city": "Atlanta", "zip_code": "30329", "country": "US", "state": "GA", "display_address": ["2839 Buford Hwy NE", "Atlanta, GA 30329"]}, "phone": "+14049419067", "display_phone": "(404) 941-9067", "distance": 3536.8276450383682}, {"id": "kkgXCsbYVbHoia9Pr214tQ", "alias": "pho-24-atlanta-2", "name": "Pho 24", "image_url": "https://s3-media2.fl.yelpcdn.com/bphoto/elD_4koSLOQF_WPY6WNt0w/o.jpg", "is_closed": false, "url": "https://www.yelp.com/biz/pho-24-atlanta-2?adjust_creative=mOQnsCAQCU1OEchZbfnYAg&utm_campaign=yelp_api_v3&utm_medium=api_v3_business_search&utm_source=mOQnsCAQCU1OEchZbfnYAg", "review_count": 513, "categories": [{"alias": "vietnamese", "title": "Vietnamese"}], "rating": 3.5, "coordinates": {"latitude": 33.877385664141464, "longitude": -84.29343029386563}, "transactions": ["delivery", "pickup"], "price": "$$", "location": {"address1": "4646 Buford Hwy NE", "address2": "Ste R", "address3": "", "city": "Atlanta", "zip_code": "30341", "country": "US", "state": "GA", "display_address": ["4646 Buford Hwy NE", "Ste R", "Atlanta, GA 30341"]}, "phone": "+17707100178", "display_phone": "(770) 710-0178", "distance": 10284.50631583811}, {"id": "23UWCyB8UnPu-0t-67iEKA", "alias": "the-food-shoppe-atlanta-4", "name": "The Food Shoppe ", "image_url": "https://s3-media1.fl.yelpcdn.com/bphoto/EFK_dMZup89faB7CGTcTbg/o.jpg", "is_closed": false, "url": "https://www.yelp.com/biz/the-food-shoppe-atlanta-4?adjust_creative=mOQnsCAQCU1OEchZbfnYAg&utm_campaign=yelp_api_v3&utm_medium=api_v3_business_search&utm_source=mOQnsCAQCU1OEchZbfnYAg", "review_count": 936, "categories": [{"alias": "cajun", "title": "Cajun/Creole"}, {"alias": "breakfast_brunch", "title": "Breakfast & Brunch"}, {"alias": "sandwiches", "title": "Sandwiches"}], "rating": 4.5, "coordinates": {"latitude": 33.758317328053245, "longitude": -84.39043621390421}, "transactions": ["pickup"], "price": "$$", "location": {"address1": "123 Luckie St NW", "address2": "Ste 108", "address3": "", "city": "Atlanta", "zip_code": "30303", "country": "US", "state": "GA", "display_address": ["123 Luckie St NW", "Ste 108", "Atlanta, GA 30303"]}, "phone": "+14046008443", "display_phone": "(404) 600-8443", "distance": 6298.701945752326}, {"id": "eG-UO83g_5zDk70FIJbm2w", "alias": "south-city-kitchen-midtown-atlanta-2", "name": "South City Kitchen Midtown", "image_url": "https://s3-media3.fl.yelpcdn.com/bphoto/L1qX2ttHqvNMqgsw_JQNLQ/o.jpg", "is_closed": false, "url": "https://www.yelp.com/biz/south-city-kitchen-midtown-atlanta-2?adjust_creative=mOQnsCAQCU1OEchZbfnYAg&utm_campaign=yelp_api_v3&utm_medium=api_v3_business_search&utm_source=mOQnsCAQCU1OEchZbfnYAg", "review_count": 3094, "categories": [{"alias": "southern", "title": "Southern"}], "rating": 4.5, "coordinates": {"latitude": 33.786, "longitude": -84.3845599}, "transactions": ["delivery"], "price": "$$", "location": {"address1": "1144 Crescent Ave NE", "address2": "", "address3": "", "city": "Atlanta", "zip_code": "30309", "country": "US", "state": "GA", "display_address": ["1144 Crescent Ave NE", "Atlanta, GA 30309"]}, "phone": "+14048737358", "display_phone": "(404) 873-7358", "distance": 3191.2855448201794}, {"id": "uIAos8ANK0KDY5Vpy5EHCA", "alias": "rock-steady-atlanta-atlanta", "name": "Rock Steady - Atlanta", "image_url": "https://s3-media1.fl.yelpcdn.com/bphoto/bMMffv8NfoqjzNhlqvExNQ/o.jpg", "is_closed": false, "url": "https://www.yelp.com/biz/rock-steady-atlanta-atlanta?adjust_creative=mOQnsCAQCU1OEchZbfnYAg&utm_campaign=yelp_api_v3&utm_medium=api_v3_business_search&utm_source=mOQnsCAQCU1OEchZbfnYAg", "review_count": 453, "categories": [{"alias": "caribbean", "title": "Caribbean"}, {"alias": "breakfast_brunch", "title": "Breakfast & Brunch"}, {"alias": "cocktailbars", "title": "Cocktail Bars"}], "rating": 4.0, "coordinates": {"latitude": 33.77722, "longitude": -84.40768}, "transactions": ["delivery"], "price": "$$", "location": {"address1": "907 Marietta St NW", "address2": null, "address3": "", "city": "Atlanta", "zip_code": "30318", "country": "US", "state": "GA", "display_address": ["907 Marietta St NW", "Atlanta, GA 30318"]}, "phone": "+14707888120", "display_phone": "(470) 788-8120", "distance": 5111.458924097154}, {"id": "6suQ_bYtYjAE2SzvMNMOPQ", "alias": "seoul-food-kennesaw-3", "name": "Seoul Food", "image_url": "https://s3-media3.fl.yelpcdn.com/bphoto/E8nmMGTAwgSm-sdSVt9oTg/o.jpg", "is_closed": false, "url": "https://www.yelp.com/biz/seoul-food-kennesaw-3?adjust_creative=mOQnsCAQCU1OEchZbfnYAg&utm_campaign=yelp_api_v3&utm_medium=api_v3_business_search&utm_source=mOQnsCAQCU1OEchZbfnYAg", "review_count": 144, "categories": [{"alias": "korean", "title": "Korean"}], "rating": 4.0, "coordinates": {"latitude": 34.03461313925572, "longitude": -84.57089593049157}, "transactions": ["delivery", "pickup"], "location": {"address1": "745 Chastain Rd", "address2": "Ste 5040", "address3": null, "city": "Kennesaw", "zip_code": "30144", "country": "US", "state": "GA", "display_address": ["745 Chastain Rd", "Ste 5040", "Kennesaw, GA 30144"]}, "phone": "+16789033049", "display_phone": "(678) 903-3049", "distance": 30616.41043335467}, {"id": "Z2qMwUhnGt_2pA9uQbS7Uw", "alias": "the-vortex-bar-and-grill-midtown-atlanta", "name": "The Vortex Bar And Grill - Midtown", "image_url": "https://s3-media4.fl.yelpcdn.com/bphoto/G3yU2A_ejrasV5tzoxMzew/o.jpg", "is_closed": false, "url": "https://www.yelp.com/biz/the-vortex-bar-and-grill-midtown-atlanta?adjust_creative=mOQnsCAQCU1OEchZbfnYAg&utm_campaign=yelp_api_v3&utm_medium=api_v3_business_search&utm_source=mOQnsCAQCU1OEchZbfnYAg", "review_count": 1961, "categories": [{"alias": "burgers", "title": "Burgers"}, {"alias": "tradamerican", "title": "American (Traditional)"}, {"alias": "bars", "title": "Bars"}], "rating": 4.0, "coordinates": {"latitude": 33.779051, "longitude": -84.384438}, "transactions": ["delivery"], "price": "$$", "location": {"address1": "878 Peachtree St NE", "address2": "", "address3": "", "city": "Atlanta", "zip_code": "30309", "country": "US", "state": "GA", "display_address": ["878 Peachtree St NE", "Atlanta, GA 30309"]}, "phone": "+14048751667", "display_phone": "(404) 875-1667", "distance": 3927.8216909597018}, {"id": "bW90nZImmo_aRanOUiZsOQ", "alias": "the-breakfast-boys-college-park", "name": "The Breakfast Boys", "image_url": "https://s3-media2.fl.yelpcdn.com/bphoto/BUYU5_WNz_F3QW9eb2UP8w/o.jpg", "is_closed": false, "url": "https://www.yelp.com/biz/the-breakfast-boys-college-park?adjust_creative=mOQnsCAQCU1OEchZbfnYAg&utm_campaign=yelp_api_v3&utm_medium=api_v3_business_search&utm_source=mOQnsCAQCU1OEchZbfnYAg", "review_count": 1161, "categories": [{"alias": "breakfast_brunch", "title": "Breakfast & Brunch"}, {"alias": "bakeries", "title": "Bakeries"}, {"alias": "newamerican", "title": "American (New)"}], "rating": 4.5, "coordinates": {"latitude": 33.66329681717365, "longitude": -84.446488}, "transactions": ["restaurant_reservation", "delivery", "pickup"], "price": "$$", "location": {"address1": "3387 Main St", "address2": null, "address3": "", "city": "College Park", "zip_code": "30337", "country": "US", "state": "GA", "display_address": ["3387 Main St", "College Park, GA 30337"]}, "phone": "+14705176981", "display_phone": "(470) 517-6981", "distance": 17979.917640371146}, {"id": "97e8_5KRqzd8o23GpN4dzA", "alias": "rukis-kitchen-no-title", "name": "Ruki's Kitchen", "image_url": "https://s3-media1.fl.yelpcdn.com/bphoto/DjikU6fvJpgRQWWXERkJrQ/o.jpg", "is_closed": false, "url": "https://www.yelp.com/biz/rukis-kitchen-no-title?adjust_creative=mOQnsCAQCU1OEchZbfnYAg&utm_campaign=yelp_api_v3&utm_medium=api_v3_business_search&utm_source=mOQnsCAQCU1OEchZbfnYAg", "review_count": 10, "categories": [{"alias": "ethiopian", "title": "Ethiopian"}], "rating": 5.0, "coordinates": {"latitude": 33.74075, "longitude": -84.34673}, "transactions": ["delivery", "pickup"], "location": {"address1": "477 Flat Shoals Ave SE", "address2": null, "address3": "", "city": "Atlanta", "zip_code": "30316", "country": "US", "state": "GA", "display_address": ["477 Flat Shoals Ave SE", "Atlanta, GA 30316"]}, "phone": "+14044307613", "display_phone": "(404) 430-7613", "distance": 8412.014415689277}, {"id": "JTGjHr9ii1TWq0TNLFkiQw", "alias": "blossom-tree-atlanta", "name": "Blossom Tree", "image_url": "https://s3-media4.fl.yelpcdn.com/bphoto/dW25e8XaxuAoYYwDd4MXfg/o.jpg", "is_closed": false, "url": "https://www.yelp.com/biz/blossom-tree-atlanta?adjust_creative=mOQnsCAQCU1OEchZbfnYAg&utm_campaign=yelp_api_v3&utm_medium=api_v3_business_search&utm_source=mOQnsCAQCU1OEchZbfnYAg", "review_count": 422, "categories": [{"alias": "korean", "title": "Korean"}], "rating": 4.5, "coordinates": {"latitude": 33.7554945955001, "longitude": -84.3891076100377}, "transactions": ["delivery", "pickup"], "price": "$$", "location": {"address1": "64 Peachtree St NW", "address2": "", "address3": "", "city": "Atlanta", "zip_code": "30303", "country": "US", "state": "GA", "display_address": ["64 Peachtree St NW", "Atlanta, GA 30303"]}, "phone": "+14042237500", "display_phone": "(404) 223-7500", "distance": 6575.5351546276925}, {"id": "6mMJ-coX4GOKEtVRpnRydg", "alias": "bun-factory-doraville", "name": "Bun Factory", "image_url": "https://s3-media2.fl.yelpcdn.com/bphoto/5x3sqwrTNzoc03cqoOzikg/o.jpg", "is_closed": false, "url": "https://www.yelp.com/biz/bun-factory-doraville?adjust_creative=mOQnsCAQCU1OEchZbfnYAg&utm_campaign=yelp_api_v3&utm_medium=api_v3_business_search&utm_source=mOQnsCAQCU1OEchZbfnYAg", "review_count": 68, "categories": [{"alias": "dimsum", "title": "Dim Sum"}, {"alias": "malaysian", "title": "Malaysian"}], "rating": 4.5, "coordinates": {"latitude": 33.896264765198595, "longitude": -84.2812399}, "transactions": [], "location": {"address1": "5283 Buford Hwy NE", "address2": "", "address3": null, "city": "Doraville", "zip_code": "30340", "country": "US", "state": "GA", "display_address": ["5283 Buford Hwy NE", "Doraville, GA 30340"]}, "phone": "+14703593170", "display_phone": "(470) 359-3170", "distance": 12572.376991838793}, {"id": "_IFMCrheTi12RqiR7jvJUg", "alias": "little-rey-atlanta-3", "name": "Little Rey", "image_url": "https://s3-media3.fl.yelpcdn.com/bphoto/YFHb8jkLPfJk0PYXYzIkdg/o.jpg", "is_closed": false, "url": "https://www.yelp.com/biz/little-rey-atlanta-3?adjust_creative=mOQnsCAQCU1OEchZbfnYAg&utm_campaign=yelp_api_v3&utm_medium=api_v3_business_search&utm_source=mOQnsCAQCU1OEchZbfnYAg", "review_count": 412, "categories": [{"alias": "tex-mex", "title": "Tex-Mex"}, {"alias": "tacos", "title": "Tacos"}], "rating": 4.0, "coordinates": {"latitude": 33.80799167, "longitude": -84.36634667}, "transactions": ["delivery"], "price": "$$", "location": {"address1": "1878 Piedmont Ave NE", "address2": null, "address3": "", "city": "Atlanta", "zip_code": "30324", "country": "US", "state": "GA", "display_address": ["1878 Piedmont Ave NE", "Atlanta, GA 30324"]}, "phone": "+17707960207", "display_phone": "(770) 796-0207", "distance": 890.2798285455971}, {"id": "dfL1KYHtcs6YaFVx-nZTdQ", "alias": "whiskey-bird-atlanta", "name": "Whiskey Bird", "image_url": "https://s3-media4.fl.yelpcdn.com/bphoto/-wpxTtkX-NKY09DK0-nYeA/o.jpg", "is_closed": false, "url": "https://www.yelp.com/biz/whiskey-bird-atlanta?adjust_creative=mOQnsCAQCU1OEchZbfnYAg&utm_campaign=yelp_api_v3&utm_medium=api_v3_business_search&utm_source=mOQnsCAQCU1OEchZbfnYAg", "review_count": 573, "categories": [{"alias": "newamerican", "title": "American (New)"}, {"alias": "asianfusion", "title": "Asian Fusion"}, {"alias": "breakfast_brunch", "title": "Breakfast & Brunch"}], "rating": 4.5, "coordinates": {"latitude": 33.792656, "longitude": -84.351852}, "transactions": ["delivery"], "price": "$$", "location": {"address1": "1409 N Highland Ave NE", "address2": null, "address3": "", "city": "Atlanta", "zip_code": "30306", "country": "US", "state": "GA", "display_address": ["1409 N Highland Ave NE", "Atlanta, GA 30306"]}, "phone": "+14045000575", "display_phone": "(404) 500-0575", "distance": 3045.1575803203955}, {"id": "WvE0fx_ZhtuDlNiVjG3-Tg", "alias": "woodys-cheesesteaks-atlanta-2", "name": "Woody's CheeseSteaks", "image_url": "https://s3-media3.fl.yelpcdn.com/bphoto/Jb_NRCN2FUkIu29KgeLurw/o.jpg", "is_closed": false, "url": "https://www.yelp.com/biz/woodys-cheesesteaks-atlanta-2?adjust_creative=mOQnsCAQCU1OEchZbfnYAg&utm_campaign=yelp_api_v3&utm_medium=api_v3_business_search&utm_source=mOQnsCAQCU1OEchZbfnYAg", "review_count": 104, "categories": [{"alias": "cheesesteaks", "title": "Cheesesteaks"}, {"alias": "icecream", "title": "Ice Cream & Frozen Yogurt"}], "rating": 4.0, "coordinates": {"latitude": 33.84152283, "longitude": -84.3803645}, "transactions": ["delivery"], "price": "$$", "location": {"address1": "45 Irby Ave", "address2": null, "address3": "", "city": "Atlanta", "zip_code": "30305", "country": "US", "state": "GA", "display_address": ["45 Irby Ave", "Atlanta, GA 30305"]}, "phone": "+14048441112", "display_phone": "(404) 844-1112", "distance": 3206.555439696697}, {"id": "jQrQ3mrFHYnNamGNAJUi6w", "alias": "mobay-spice-no-title", "name": "Mobay Spice", "image_url": "https://s3-media3.fl.yelpcdn.com/bphoto/rU7yCFwGKcGlSLcf-oLFQw/o.jpg", "is_closed": false, "url": "https://www.yelp.com/biz/mobay-spice-no-title?adjust_creative=mOQnsCAQCU1OEchZbfnYAg&utm_campaign=yelp_api_v3&utm_medium=api_v3_business_search&utm_source=mOQnsCAQCU1OEchZbfnYAg", "review_count": 10, "categories": [{"alias": "caribbean", "title": "Caribbean"}, {"alias": "breakfast_brunch", "title": "Breakfast & Brunch"}, {"alias": "beerbar", "title": "Beer Bar"}], "rating": 4.5, "coordinates": {"latitude": 33.814133, "longitude": -84.311616}, "transactions": [], "location": {"address1": "2953 North Druid Hills Rd", "address2": null, "address3": "", "city": "Atlanta", "zip_code": "30329", "country": "US", "state": "GA", "display_address": ["2953 North Druid Hills Rd", "Atlanta, GA 30329"]}, "phone": "+14049417028", "display_phone": "(404) 941-7028", "distance": 5722.430246716389}, {"id": "sGLko0MwCs6hlRCXTD_bug", "alias": "cheba-hut-toasted-subs-atlanta-3", "name": "Cheba Hut Toasted Subs", "image_url": "https://s3-media3.fl.yelpcdn.com/bphoto/JLk_88wiiAU32F9V4XaGig/o.jpg", "is_closed": false, "url": "https://www.yelp.com/biz/cheba-hut-toasted-subs-atlanta-3?adjust_creative=mOQnsCAQCU1OEchZbfnYAg&utm_campaign=yelp_api_v3&utm_medium=api_v3_business_search&utm_source=mOQnsCAQCU1OEchZbfnYAg", "review_count": 79, "categories": [{"alias": "sandwiches", "title": "Sandwiches"}], "rating": 4.5, "coordinates": {"latitude": 33.773777, "longitude": -84.405882}, "transactions": ["delivery", "pickup"], "price": "$$", "location": {"address1": "800 Marietta St NW", "address2": "STE A", "address3": null, "city": "Atlanta", "zip_code": "30318", "country": "US", "state": "GA", "display_address": ["800 Marietta St NW", "STE A", "Atlanta, GA 30318"]}, "phone": "+14706982783", "display_phone": "(470) 698-2783", "distance": 5287.175860849466}], "weather_33.854680161043404_-84.3822133": {"temp": 288.12, "feels_like": 286.59, "temp_min": 285.72, "temp_max": 289.87, "pressure": 1014, "humidity": 35}, "weather_33.81099_-84.42574": {"temp": 288.24, "feels_like": 286.72, "temp_min": 285.05, "temp_max": 290.06, "pressure": 1014, "humidity": 35}, "weather_33.71485679159042_-84.27352065504594": {"temp": 288.21, "feels_like": 286.66, "temp_min": 285.85, "temp_max": 290, "pressure": 1014, "humidity": 34}, "weather_33.76502172531836_-84.39540055138298": {"temp": 288.11, "feels_like": 286.58, "temp_min": 284.93, "temp_max": 289.85, "pressure": 1014, "humidity": 35}, "weather_33.785933_-84.400863": {"temp": 288.27, "feels_like": 286.73, "temp_min": 285.86, "temp_max": 289.94, "pressure": 1014, "humidity": 34}, "weather_33.88625820727653_-84.2655890062451": {"temp": 288.19, "feels_like": 286.69, "temp_min": 285.79, "temp_max": 289.87, "pressure": 1013, "humidity": 36}, "weather_33.752875884474_-84.3821049111214": {"temp": 288.04, "feels_like": 286.47, "temp_min": 284.86, "temp_max": 289.77, "pressure": 1014, "humidity": 34}, "weather_33.84011_-84.38107": {"temp": 288.01, "feels_like": 286.47, "temp_min": 285.6, "temp_max": 289.75, "pressure": 1014, "humidity": 35}, "weather_33.751593122745696_-84.48724207354398": {"temp": 287.95, "feels_like": 286.4, "temp_min": 284.62, "temp_max": 290.02, "pressure": 1014, "humidity": 35}, "weather_33.84314_-84.32838": {"temp": 288.28, "feels_like": 286.76, "temp_min": 285.83, "temp_max": 289.98, "pressure": 1014, "humidity": 35}, "weather_33.7959853_-84.41390743168769": {"temp": 288.16, "feels_like": 286.63, "temp_min": 284.94, "temp_max": 289.94, "pressure": 1014, "humidity": 35}, "weather_33.7624_-84.34882": {"temp": 288, "feels_like": 286.4, "temp_min": 285.57, "temp_max": 289.72, "pressure": 1014, "humidity": 33}, "weather_33.781634_-84.380308": {"temp": 288.25, "feels_like": 286.7, "temp_min": 285.82, "temp_max": 289.97, "pressure": 1014, "humidity": 34}, "weather_33.75395_-84.3884": {"temp": 288.14, "feels_like": 286.63, "temp_min": 285.45, "temp_max": 289.58, "pressure": 1014, "humidity": 36}, "weather_33.7774837176681_-84.38346134905734": {"temp": 288.25, "feels_like": 286.7, "temp_min": 285.82, "temp_max": 289.97, "pressure": 1014, "humidity": 34}, "weather_33.8452336367562_-84.3712960294998": {"temp": 288.09, "feels_like": 286.55, "temp_min": 285.66, "temp_max": 289.81, "pressure": 1014, "humidity": 35}, "weather_33.79100892042843_-84.30718105952774": {"temp": 288.14, "feels_like": 286.58, "temp_min": 285.69, "temp_max": 289.84, "pressure": 1014, "humidity": 34}, "weather_33.84308_-84.32924": {"temp": 288.28, "feels_like": 286.76, "temp_min": 285.83, "temp_max": 289.98, "pressure": 1014, "humidity": 35}, "weather_33.773503_-84.357113": {"temp": 288.05, "feels_like": 286.48, "temp_min": 285.61, "temp_max": 289.76, "pressure": 1014, "humidity": 34}, "weather_33.80831_-84.36558": {"temp": 288.31, "feels_like": 286.77, "temp_min": 285.87, "temp_max": 290.02, "pressure": 1014, "humidity": 34}, "weather_33.7959650227681_-84.41395994173419": {"temp": 288.26, "feels_like": 286.74, "temp_min": 285.05, "temp_max": 289.94, "pressure": 1014, "humidity": 35}, "weather_33.810996_-84.367084": {"temp": 288.31, "feels_like": 286.77, "temp_min": 285.87, "temp_max": 290.02, "pressure": 1014, "humidity": 34}, "weather_33.78413405721858_-84.38461273063074": {"temp": 288.2, "feels_like": 286.65, "temp_min": 285.77, "temp_max": 289.92, "pressure": 1014, "humidity": 34}, "weather_33.7605381455292_-84.3865554648041": {"temp": 288.04, "feels_like": 286.47, "temp_min": 284.85, "temp_max": 289.77, "pressure": 1014, "humidity": 34}, "weather_33.8457312_-84.3585303": {"temp": 288.25, "feels_like": 286.73, "temp_min": 285.8, "temp_max": 289.95, "pressure": 1014, "humidity": 35}, "weather_33.816665_-84.335219": {"temp": 288.1, "feels_like": 286.54, "temp_min": 285.64, "temp_max": 289.79, "pressure": 1014, "humidity": 34}, "weather_33.757311_-84.389912": {"temp": 288.04, "feels_like": 286.47, "temp_min": 284.85, "temp_max": 289.77, "pressure": 1014, "humidity": 34}, "weather_33.7684_-84.38226": {"temp": 288.22, "feels_like": 286.72, "temp_min": 285.52, "temp_max": 289.64, "pressure": 1014, "humidity": 36}, "weather_33.79241851538346_-84.44788330444645": {"temp": 288.02, "feels_like": 286.48, "temp_min": 284.91, "temp_max": 289.96, "pressure": 1014, "humidity": 35}, "weather_33.78342287706572_-84.38425209927034": {"temp": 288.2, "feels_like": 286.65, "temp_min": 285.77, "temp_max": 289.92, "pressure": 1014, "humidity": 34}, "weather_33.7554893493652_-84.3906097412109": {"temp": 288.04, "feels_like": 286.47, "temp_min": 284.85, "temp_max": 289.77, "pressure": 1014, "humidity": 34}, "weather_33.840762_-84.3783858": {"temp": 288.02, "feels_like": 286.48, "temp_min": 285.6, "temp_max": 289.75, "pressure": 1014, "humidity": 35}, "weather_33.817_-84.37502": {"temp": 288.4, "feels_like": 286.89, "temp_min": 285.97, "temp_max": 290.12, "pressure": 1014, "humidity": 35}, "weather_33.78066268471015_-84.38366420248812": {"temp": 288.2, "feels_like": 286.65, "temp_min": 285.77, "temp_max": 289.92, "pressure": 1014, "humidity": 34}, "weather_33.83109_-84.34203": {"temp": 288.34, "feels_like": 286.83, "temp_min": 285.89, "temp_max": 290.04, "pressure": 1014, "humidity": 35}, "weather_33.877385664141464_-84.29343029386563": {"temp": 288.11, "feels_like": 286.6, "temp_min": 285.67, "temp_max": 289.82, "pressure": 1013, "humidity": 36}, "weather_33.758317328053245_-84.39043621390421": {"temp": 288.04, "feels_like": 286.47, "temp_min": 284.85, "temp_max": 289.77, "pressure": 1014, "humidity": 34}, "weather_33.786_-84.3845599": {"temp": 288.17, "feels_like": 286.62, "temp_min": 285.74, "temp_max": 289.89, "pressure": 1014, "humidity": 34}, "weather_33.77722_-84.40768": {"temp": 288.01, "feels_like": 286.44, "temp_min": 284.8, "temp_max": 289.85, "pressure": 1014, "humidity": 34}, "weather_34.03461313925572_-84.57089593049157": {"temp": 287.75, "feels_like": 286.28, "temp_min": 284.43, "temp_max": 289.76, "pressure": 1013, "humidity": 39}, "weather_33.779051_-84.384438": {"temp": 288.2, "feels_like": 286.65, "temp_min": 285.77, "temp_max": 289.92, "pressure": 1014, "humidity": 34}, "weather_33.66329681717365_-84.446488": {"temp": 287.68, "feels_like": 286.08, "temp_min": 284.46, "temp_max": 289.67, "pressure": 1014, "humidity": 34}, "weather_33.74075_-84.34673": {"temp": 288.05, "feels_like": 286.43, "temp_min": 285.62, "temp_max": 289.77, "pressure": 1014, "humidity": 32}, "weather_33.7554945955001_-84.3891076100377": {"temp": 288.04, "feels_like": 286.47, "temp_min": 284.85, "temp_max": 289.77, "pressure": 1014, "humidity": 34}, "weather_33.896264765198595_-84.2812399": {"temp": 288.22, "feels_like": 286.75, "temp_min": 286.14, "temp_max": 289.58, "pressure": 1013, "humidity": 37}, "weather_33.80799167_-84.36634667": {"temp": 288.31, "feels_like": 286.77, "temp_min": 285.87, "temp_max": 290.02, "pressure": 1014, "humidity": 34}, "weather_33.792656_-84.351852": {"temp": 288.28, "feels_like": 286.74, "temp_min": 285.84, "temp_max": 289.99, "pressure": 1014, "humidity": 34}, "weather_33.84152283_-84.3803645": {"temp": 288.02, "feels_like": 286.48, "temp_min": 285.6, "temp_max": 289.75, "pressure": 1014, "humidity": 35}, "weather_33.814133_-84.311616": {"temp": 288.06, "feels_like": 286.49, "temp_min": 285.61, "temp_max": 289.76, "pressure": 1014, "humidity": 34}, "weather_33.773777_-84.405882": {"temp": 287.98, "feels_like": 286.41, "temp_min": 284.77, "temp_max": 289.82, "pressure": 1014, "humidity": 34}, "weather_33.79578960095685_-84.41422999999999": {"temp": 287.86, "feels_like": 286.3, "temp_min": 284.89, "temp_max": 289.87, "pressure": 1014, "humidity": 35}, "weather_33.7873509292038_-84.38220272331333": {"temp": 287.87, "feels_like": 286.31, "temp_min": 284.84, "temp_max": 289.82, "pressure": 1014, "humidity": 35}, "weather_33.901714_-84.544426": {"temp": 287.27, "feels_like": 285.73, "temp_min": 284.51, "temp_max": 289.58, "pressure": 1014, "humidity": 38}, "weather_33.7848226_-84.4110907": {"temp": 287.77, "feels_like": 286.2, "temp_min": 284.81, "temp_max": 289.79, "pressure": 1014, "humidity": 35}, "weather_33.86986_-84.38056": {"temp": 287.98, "feels_like": 286.46, "temp_min": 284.98, "temp_max": 289.96, "pressure": 1013, "humidity": 36}, "weather_33.78106_-84.39017": {"temp": 287.98, "feels_like": 286.41, "temp_min": 284.76, "temp_max": 289.81, "pressure": 1014, "humidity": 34}, "weather_33.7614127151422_-84.36540459999999": {"temp": 287.7, "feels_like": 286.12, "temp_min": 284.69, "temp_max": 289.67, "pressure": 1014, "humidity": 35}, "weather_40.71497047687499_-73.99158544320115": {"temp": 289.19, "feels_like": 287.89, "temp_min": 287.48, "temp_max": 290.34, "pressure": 1004, "humidity": 40}, "weather_40.71704_-73.99338": {"temp": 289.22, "feels_like": 287.95, "temp_min": 287.5, "temp_max": 290.36, "pressure": 1004, "humidity": 41}, "weather_40.70343127955398_-73.99161055480388": {"temp": 289.17, "feels_like": 287.9, "temp_min": 287.44, "temp_max": 290.31, "pressure": 1004, "humidity": 41}, "weather_40.68751_-73.99007": {"temp": 289.27, "feels_like": 287.98, "temp_min": 287.48, "temp_max": 290.34, "pressure": 1004, "humidity": 40}, "weather_40.697978_-73.991777": {"temp": 289.17, "feels_like": 287.9, "temp_min": 287.44, "temp_max": 290.31, "pressure": 1004, "humidity": 41}, "weather_40.71897_-74.00102": {"temp": 289.18, "feels_like": 287.91, "temp_min": 287.48, "temp_max": 290.34, "pressure": 1004, "humidity": 41}, "weather_40.69925_-73.99227": {"temp": 289.17, "feels_like": 287.9, "temp_min": 287.44, "temp_max": 290.31, "pressure": 1004, "humidity": 41}, "weather_40.704676_-73.987975": {"temp": 289.17, "feels_like": 287.9, "temp_min": 287.44, "temp_max": 290.31, "pressure": 1004, "humidity": 41}, "weather_40.69333_-73.97172": {"temp": 289.25, "feels_like": 287.99, "temp_min": 287.44, "temp_max": 290.3, "pressure": 1004, "humidity": 41}, "weather_40.69023_-73.99634": {"temp": 289.15, "feels_like": 287.85, "temp_min": 287.43, "temp_max": 290.29, "pressure": 1004, "humidity": 40}, "weather_40.7539221_-73.9845647": {"temp": 289.11, "feels_like": 287.83, "temp_min": 287.42, "temp_max": 290.27, "pressure": 1004, "humidity": 41}, "weather_40.76234_-73.996759": {"temp": 289.14, "feels_like": 287.87, "temp_min": 287.47, "temp_max": 290.32, "pressure": 1004, "humidity": 41}, "weather_40.707637410782205_-74.00217502788762": {"temp": 289.23, "feels_like": 287.96, "temp_min": 287.53, "temp_max": 290.4, "pressure": 1004, "humidity": 41}, "weather_40.72072_-73.98864": {"temp": 289.22, "feels_like": 287.95, "temp_min": 287.5, "temp_max": 290.36, "pressure": 1004, "humidity": 41}, "weather_40.69278448368199_-73.98827794662675": {"temp": 289.27, "feels_like": 287.98, "temp_min": 287.48, "temp_max": 290.34, "pressure": 1004, "humidity": 40}, "weather_40.69992328722937_-73.99371282578757": {"temp": 289.17, "feels_like": 287.9, "temp_min": 287.44, "temp_max": 290.31, "pressure": 1004, "humidity": 41}, "weather_40.73226104990206_-73.95779777467524": {"temp": 289.25, "feels_like": 287.96, "temp_min": 287.51, "temp_max": 290.38, "pressure": 1004, "humidity": 40}, "weather_40.71350664203596_-73.95855296810493": {"temp": 289.27, "feels_like": 287.98, "temp_min": 287.51, "temp_max": 290.38, "pressure": 1004, "humidity": 40}, "weather_40.7545583408224_-73.9842533892464": {"temp": 289.2, "feels_like": 287.96, "temp_min": 287.45, "temp_max": 290.29, "pressure": 1004, "humidity": 42}, "weather_40.693868137768895_-73.9634565145772": {"temp": 289.24, "feels_like": 287.95, "temp_min": 287.48, "temp_max": 290.34, "pressure": 1004, "humidity": 40}, "weather_40.69197829520578_-73.98584081533122": {"temp": 289.27, "feels_like": 287.98, "temp_min": 287.48, "temp_max": 290.34, "pressure": 1004, "humidity": 40}, "weather_40.7529924313151_-73.9832981480782": {"temp": 289.2, "feels_like": 287.96, "temp_min": 287.45, "temp_max": 290.29, "pressure": 1004, "humidity": 42}, "weather_40.84381_-73.93798": {"temp": 288.84, "feels_like": 287.59, "temp_min": 286.71, "temp_max": 290.06, "pressure": 1004, "humidity": 43}, "weather_40.6846109_-73.950225": {"temp": 289.23, "feels_like": 287.94, "temp_min": 287.45, "temp_max": 290.31, "pressure": 1004, "humidity": 40}, "weather_40.6933441162109_-73.9722290039062": {"temp": 289.16, "feels_like": 287.86, "temp_min": 287.41, "temp_max": 290.27, "pressure": 1004, "humidity": 40}, "weather_40.7562_-73.95504": {"temp": 289.26, "feels_like": 288, "temp_min": 287.53, "temp_max": 290.37, "pressure": 1004, "humidity": 41}, "weather_40.7421500176917_-73.982722": {"temp": 289.19, "feels_like": 287.92, "temp_min": 287.49, "temp_max": 290.35, "pressure": 1004, "humidity": 41}, "weather_40.72506_-73.84549": {"temp": 289.25, "feels_like": 287.99, "temp_min": 287.42, "temp_max": 290.29, "pressure": 1003, "humidity": 41}, "weather_40.70327_-73.98676": {"temp": 289.17, "feels_like": 287.9, "temp_min": 287.44, "temp_max": 290.31, "pressure": 1004, "humidity": 41}, "weather_40.7205_-73.98826": {"temp": 289.22, "feels_like": 287.95, "temp_min": 287.5, "temp_max": 290.36, "pressure": 1004, "humidity": 41}, "weather_40.7922_-73.93854": {"temp": 289.24, "feels_like": 288, "temp_min": 287.54, "temp_max": 290.38, "pressure": 1005, "humidity": 42}, "weather_40.71786_-73.98518": {"temp": 289.22, "feels_like": 287.95, "temp_min": 287.5, "temp_max": 290.36, "pressure": 1004, "humidity": 41}, "weather_40.59901663470185_-73.9370201965315": {"temp": 289.38, "feels_like": 288.13, "temp_min": 287.58, "temp_max": 290.43, "pressure": 1004, "humidity": 41}, "weather_40.72743_-73.98521": {"temp": 289.22, "feels_like": 287.95, "temp_min": 287.51, "temp_max": 290.37, "pressure": 1004, "humidity": 41}, "weather_40.667011267301426_-73.98830694628342": {"temp": 289.2, "feels_like": 287.9, "temp_min": 287.44, "temp_max": 290.3, "pressure": 1004, "humidity": 40}, "weather_40.7569200941962_-73.9723208919168": {"temp": 289.19, "feels_like": 287.95, "temp_min": 287.44, "temp_max": 290.28, "pressure": 1004, "humidity": 42}, "weather_40.77382345943564_-73.9579557": {"temp": 289.15, "feels_like": 287.9, "temp_min": 287.44, "temp_max": 290.28, "pressure": 1005, "humidity": 42}, "weather_40.69799_-73.97116": {"temp": 289.27, "feels_like": 287.98, "temp_min": 287.52, "temp_max": 290.38, "pressure": 1004, "humidity": 40}, "weather_40.79837_-73.96941": {"temp": 289.02, "feels_like": 287.76, "temp_min": 287.34, "temp_max": 290.18, "pressure": 1005, "humidity": 42}, "weather_40.752095004541_-73.8535914288361": {"temp": 289.32, "feels_like": 288.06, "temp_min": 287.01, "temp_max": 290.37, "pressure": 1003, "humidity": 41}, "weather_40.72355_-73.95182": {"temp": 289.28, "feels_like": 288.02, "temp_min": 287.52, "temp_max": 290.38, "pressure": 1004, "humidity": 41}, "weather_40.687630013555_-73.9568200707436": {"temp": 289.24, "feels_like": 287.95, "temp_min": 287.48, "temp_max": 290.34, "pressure": 1004, "humidity": 40}, "weather_40.71695_-73.99327": {"temp": 289.22, "feels_like": 287.95, "temp_min": 287.5, "temp_max": 290.36, "pressure": 1004, "humidity": 41}, "weather_40.7140208838114_-73.960325717926": {"temp": 289.27, "feels_like": 287.98, "temp_min": 287.51, "temp_max": 290.38, "pressure": 1004, "humidity": 40}, "weather_40.72816_-74.00172": {"temp": 289.17, "feels_like": 287.9, "temp_min": 287.47, "temp_max": 290.33, "pressure": 1004, "humidity": 41}, "weather_40.710629_-73.965061": {"temp": 289.19, "feels_like": 287.89, "temp_min": 287.45, "temp_max": 290.31, "pressure": 1004, "humidity": 40}, "weather_40.71613781459604_-73.9665876020738": {"temp": 289.24, "feels_like": 287.95, "temp_min": 287.49, "temp_max": 290.36, "pressure": 1004, "humidity": 40}, "weather_40.72467_-73.95117": {"temp": 289.28, "feels_like": 288.02, "temp_min": 287.52, "temp_max": 290.38, "pressure": 1004, "humidity": 41}, "weather_40.692036_-74.000534": {"temp": 289.15, "feels_like": 287.85, "temp_min": 287.44, "temp_max": 290.31, "pressure": 1004, "humidity": 40}, "weather_40.706011_-73.932598": {"temp": 289.28, "feels_like": 288.02, "temp_min": 287.48, "temp_max": 290.34, "pressure": 1004, "humidity": 41}, "weather_40.7138257110445_-73.9556050300598": {"temperature": 61.02, "humidity": 40}, "weather_40.72873787481279_-73.98830339999999": {"temperature": 61.03, "humidity": 41}, "weather_40.7032670673495_-73.9922419276899": {"temperature": 60.82, "humidity": 40}, "weather_40.732257609566_-73.9543802663684": {"temperature": 61, "humidity": 41}, "weather_40.771079412615244_-73.86519088237667": {"temperature": 61.09, "humidity": 41}, "weather_40.6982018370924_-73.9710953725855": {"temperature": 60.98, "humidity": 40}, "weather_40.7189689_-74.0006772": {"temperature": 60.6, "humidity": 42}, "weather_40.7307100207_-73.994362572": {"temperature": 60.91, "humidity": 41}, "weather_40.71678_-73.99968": {"temperature": 60.6, "humidity": 42}, "weather_40.72725_-73.98664": {"temperature": 60.91, "humidity": 41}, "weather_40.7295104447158_-74.0006693438721": {"temperature": 60.6, "humidity": 42}, "weather_40.71981_-73.99908": {"temperature": 60.6, "humidity": 42}, "weather_40.71162_-73.96184": {"temperature": 60.69, "humidity": 41}, "weather_40.702834_-73.9905026": {"temperature": 60.76, "humidity": 41}, "weather_40.71916_-73.9586": {"temperature": 60.76, "humidity": 41}, "weather_40.71887_-73.99134": {"temperature": 60.64, "humidity": 41}, "weather_40.689225_-73.988117": {"temperature": 60.76, "humidity": 41}, "weather_40.721087_-74.00395": {"temperature": 60.6, "humidity": 42}, "weather_40.720768089972495_-73.988492": {"temperature": 60.64, "humidity": 41}, "weather_40.739126025294_-73.9868698666748": {"temperature": 60.82, "humidity": 42}, "weather_40.69111_-73.90509": {"temperature": 60.69, "humidity": 41}, "weather_40.6931511_-73.98126409999999": {"temperature": 60.66, "humidity": 41}, "weather_40.7147999_-73.96151": {"temperature": 60.73, "humidity": 41}, "weather_40.70650788572022_-74.00777149999999": {"temperature": 60.87, "humidity": 41}, "weather_40.70184_-73.9958147": {"temperature": 60.84, "humidity": 41}, "weather_40.733138_-73.998044": {"temperature": 60.62, "humidity": 42}, "weather_40.80792532773322_-74.06936750080814": {"temperature": 60.46, "humidity": 43}, "weather_40.75816_-73.82982": {"temperature": 60.69, "humidity": 41}, "weather_40.698296727787_-73.99307556416": {"temperature": 60.55, "humidity": 41}, "weather_40.72879_-74.00165": {"temperature": 60.8, "humidity": 41}, "weather_40.7296233_-73.95814229999999": {"temperature": 60.73, "humidity": 41}, "weather_40.72459_-73.99478": {"temperature": 60.64, "humidity": 41}, "weather_40.7386178790617_-73.9834206895483": {"temperature": 60.69, "humidity": 42}, "weather_40.747831171416436_-73.9865153": {"temperature": 60.58, "humidity": 42}, "weather_40.756326_-73.981117": {"temperature": 60.64, "humidity": 42}, "weather_40.742835593003456_-73.99978804723622": {"temperature": 60.6, "humidity": 42}, "weather_40.72915_-73.98557": {"temperature": 60.91, "humidity": 41}, "weather_40.690356673680306_-73.99531226978743": {"temperature": 60.82, "humidity": 40}, "weather_40.71919_-73.98571": {"temperature": 60.64, "humidity": 41}, "weather_40.74682_-73.98305": {"temperature": 60.69, "humidity": 41}, "weather_40.68309_-73.9928": {"temperature": 60.71, "humidity": 41}, "weather_40.73276668659204_-73.98628575274573": {"temperature": 60.91, "humidity": 41}, "weather_40.756591_-73.969306": {"temperature": 60.62, "humidity": 42}, "weather_40.720066_-73.996261": {"temperature": 60.6, "humidity": 42}, "weather_40.7360568971331_-73.9872401005554": {"temperature": 60.8, "humidity": 41}, "weather_40.7181707_-74.0021404": {"temperature": 60.6, "humidity": 42}, "weather_40.753361390474474_-73.99851651736158": {"temperature": 60.57, "humidity": 42}, "weather_40.69131703158167_-73.98786094039679": {"temperature": 60.76, "humidity": 41}, "weather_40.6920952_-73.98705": {"temperature": 60.76, "humidity": 41}, "weather_40.76137_-73.98431": {"temperature": 60.64, "humidity": 42}, "weather_40.732688_-73.997467": {"temperature": 60.6, "humidity": 42}, "weather_40.72703_-74.00203": {"temperature": 60.6, "humidity": 42}, "weather_40.72153587080824_-73.99877987802029": {"temperature": 60.6, "humidity": 42}, "weather_40.70583_-74.01013": {"temperature": 60.89, "humidity": 41}, "weather_40.72147_-73.9847": {"temperature": 60.71, "humidity": 42}, "weather_37.10985_-119.31974": {"temperature": 44.94, "humidity": 61}, "weather_37.108144014129394_-119.31862497195861": {"temperature": 44.94, "humidity": 61}, "weather_37.110535_-119.3194": {"temperature": 44.94, "humidity": 61}, "weather_37.1387195508053_-119.308498934485": {"temperature": 45.63, "humidity": 61}, "weather_37.17983_-118.81015": {"temperature": 32.77, "humidity": 80}, "weather_37.3360245111834_-119.64728457181683": {"temperature": 55.85, "humidity": 67}, "weather_37.473276_-119.634975": {"temperature": 46.2, "humidity": 72}, "weather_37.235516_-119.233926": {"temperature": 38.55, "humidity": 93}, "weather_37.480223_-119.636606": {"temperature": 46.49, "humidity": 72}, "weather_37.196365_-119.201167": {"temperature": 37.44, "humidity": 93}, "weather_37.4789766384193_-119.643420847885": {"temperature": 46.49, "humidity": 72}, "weather_37.25252423867481_-119.17419865153045": {"temperature": 38.26, "humidity": 91}, "weather_37.2474962_-119.1943198": {"temperature": 38.48, "humidity": 90}, "weather_37.23646833_-119.15685833": {"temperature": 37.6, "humidity": 93}, "weather_37.320139_-119.556643": {"temperature": 52.05, "humidity": 66}, "weather_37.334218_-119.580963": {"temperature": 52.21, "humidity": 66}, "weather_37.339521455284455_-119.64481730273025": {"temperature": 55.85, "humidity": 67}, "weather_37.3488640674494_-119.760490493393": {"temperature": 56.43, "humidity": 69}, "weather_37.340205_-119.644524": {"temperature": 55.85, "humidity": 67}, "weather_37.32749_-119.66039": {"temperature": 56.32, "humidity": 67}, "weather_37.38242_-119.632652": {"temperature": 52.47, "humidity": 68}, "weather_37.253752972281134_-119.16554685889552": {"temperature": 38.26, "humidity": 91}, "weather_37.298062_-119.536481": {"temperature": 52.39, "humidity": 63}, "weather_37.231968_-118.599752": {"temperature": 46.27, "humidity": 23}, "weather_37.536875_-119.654899": {"temperature": 49.96, "humidity": 76}, "weather_37.59703_-118.85041": {"temperature": 42.3, "humidity": 33}, "weather_37.54881_-119.64075": {"temperature": 49.33, "humidity": 76}, "weather_37.480329_-119.637607": {"temperature": 46.49, "humidity": 72}, "weather_37.4857559204102_-119.965362548828": {"temperature": 57.13, "humidity": 65}, "weather_36.995851995571_-120.107344038029": {"temperature": 66.02, "humidity": 30}, "weather_37.185281_-118.558044": {"temperature": 40.87, "humidity": 23}, "weather_37.67784814120758_-119.76539568443938": {"temperature": 56.23, "humidity": 70}, "weather_37.778232_-119.075319": {"temperature": 37.69, "humidity": 49}, "weather_37.746159_-119.574338": {"temperature": 50.18, "humidity": 87}, "weather_37.2525183017936_-119.17419533435775": {"temperature": 38.26, "humidity": 91}, "weather_36.6948146426532_-118.872782204428": {"temperature": 39.31, "humidity": 75}, "weather_37.4845237731934_-119.965599060059": {"temperature": 57.11, "humidity": 65}, "weather_37.47538_-119.64017": {"temperature": 46.49, "humidity": 72}, "weather_37.3344927_-119.6456152": {"temperature": 56.07, "humidity": 67}, "weather_37.4289512634277_-119.974479675293": {"temperature": 58.71, "humidity": 65}, "weather_37.34620484872374_-119.6419076407419": {"temperature": 55.96, "humidity": 67}, "weather_37.4002399_-119.7325": {"temperature": 53.92, "humidity": 71}, "weather_37.6511862_-119.0409212": {"temperature": 34.39, "humidity": 45}, "weather_37.5432278364113_-119.92138638623": {"temperature": 54.45, "humidity": 65}, "weather_37.29553_-119.64375": {"temperature": 53.8, "humidity": 63}, "weather_37.400622_-119.731604": {"temperature": 53.92, "humidity": 71}, "weather_37.47331565201965_-119.6351947": {"temperature": 46.2, "humidity": 72}, "weather_37.3380162_-119.6447593": {"temperature": 55.85, "humidity": 67}, "weather_36.7622592_-119.1392261": {"temperature": 56.61, "humidity": 64}, "weather_37.648466_-119.721431": {"temperature": 43.81, "humidity": 76}, "weather_42.32731_-83.15712": {"temperature": 37.35, "humidity": 77}, "weather_42.3485_-83.08786": {"temperature": 37.31, "humidity": 76}, "weather_42.34147_-83.05672": {"temperature": 37.56, "humidity": 74}, "weather_42.338277309952325_-83.0521464133298": {"temperature": 37.76, "humidity": 74}, "weather_42.331703_-83.080195": {"temperature": 37.58, "humidity": 74}, "weather_42.344965_-83.055255": {"temperature": 37.56, "humidity": 74}, "weather_42.3700146_-83.0729392": {"temperature": 37.38, "humidity": 73}, "weather_42.3479652404785_-83.0639419555664": {"temperature": 37.51, "humidity": 74}, "weather_42.34401907742649_-83.06146026886441": {"temperature": 37.53, "humidity": 74}, "weather_42.360556249668_-83.0664664036942": {"temperature": 37.4, "humidity": 73}, "weather_42.3308060633157_-83.0479924085636": {"temperature": 37.78, "humidity": 75}, "weather_42.3379_-83.05314": {"temperature": 37.62, "humidity": 75}, "weather_42.369378_-83.072277": {"temperature": 37.27, "humidity": 76}, "weather_42.3321876525879_-83.0668334960938": {"temperature": 37.63, "humidity": 75}, "weather_42.3316432369511_-83.0808343566223": {"temperature": 37.56, "humidity": 74}, "weather_42.33163354764796_-83.0753548": {"temperature": 37.56, "humidity": 74}, "weather_42.37633_-83.01584": {"temperature": 37.6, "humidity": 73}, "weather_42.3272334_-83.07270779999999": {"temperature": 37.63, "humidity": 75}, "weather_42.34918133_-83.06506567": {"temperature": 37.49, "humidity": 74}, "weather_42.33242_-83.04129": {"temperature": 37.8, "humidity": 75}, "weather_42.35894351367808_-82.99790023321208": {"temperature": 37.69, "humidity": 74}, "weather_42.3961286_-83.0488588": {"temperature": 37.31, "humidity": 74}, "weather_42.33113_-83.07584": {"temperature": 37.56, "humidity": 74}, "weather_42.338024_-83.051814": {"temperature": 37.76, "humidity": 74}, "weather_42.3320754543569_-83.0664473117439": {"temperature": 37.63, "humidity": 75}, "weather_42.350337903122_-83.0634118616581": {"temperature": 37.47, "humidity": 74}, "weather_42.3218706734797_-83.071439609787": {"temperature": 37.67, "humidity": 75}, "weather_42.3558225730242_-83.0663166940212": {"temperature": 37.42, "humidity": 74}, "weather_42.34779_-83.06499": {"temperature": 37.47, "humidity": 74}, "weather_42.34422_-83.06156": {"temperature": 37.56, "humidity": 74}, "weather_42.3316688537598_-83.041633605957": {"temperature": 37.8, "humidity": 75}, "weather_42.3389_-83.39355": {"temperature": 36.64, "humidity": 72}, "weather_42.33525_-83.04211": {"temperature": 37.56, "humidity": 74}, "weather_42.3345218_-83.0546893": {"temperature": 37.76, "humidity": 75}, "weather_42.32912243279459_-83.06206185955209": {"temperature": 37.56, "humidity": 75}, "weather_42.3463959_-83.0381907": {"temperature": 37.54, "humidity": 74}, "weather_42.33111_-83.07941": {"temperature": 37.56, "humidity": 74}, "weather_42.3351522901373_-83.0420966697811": {"temperature": 37.56, "humidity": 74}, "weather_42.329378063311765_-83.16046429035922": {"temperature": 37.35, "humidity": 77}, "weather_42.3181299_-83.10176": {"temperature": 37.62, "humidity": 77}, "weather_42.33812724400232_-83.02033189684153": {"temperature": 37.89, "humidity": 74}, "weather_42.3219277143739_-83.0913281528226": {"temperature": 37.56, "humidity": 75}, "weather_42.352967_-83.079469": {"temperature": 37.31, "humidity": 76}, "weather_42.350628_-83.063815": {"temperature": 37.47, "humidity": 74}, "weather_42.33632_-83.053074": {"temperature": 37.76, "humidity": 74}, "weather_42.33523_-83.04902": {"temperature": 37.76, "humidity": 74}, "weather_42.31082_-83.09453": {"temperature": 37.63, "humidity": 77}, "weather_42.3188542_-83.0743694": {"temperature": 37.67, "humidity": 75}, "weather_42.331499732033905_-83.0488542": {"temperature": 37.76, "humidity": 75}, "weather_42.3525798_-83.0671565": {"temperature": 37.49, "humidity": 74}, "weather_42.3687278692577_-83.07199128672282": {"temperature": 37.04, "humidity": 73}, "weather_42.33421615245273_-83.05240426681537": {"temperature": 37.54, "humidity": 75}, "weather_42.331636_-83.075787": {"temperature": 37.24, "humidity": 74}, "weather_42.329673_-83.050777": {"temperature": 37.54, "humidity": 75}, "weather_42.348652_-83.064729": {"temperature": 37.13, "humidity": 73}, "weather_42.34954089411906_-83.05888418514219": {"temperature": 37.13, "humidity": 73}, "weather_42.35902286558336_-82.99789776044366": {"temperature": 37.27, "humidity": 73}, "weather_42.3313287_-83.0799309": {"temperature": 37.24, "humidity": 74}, "weather_42.33383623711526_-83.0499098": {"temperature": 37.54, "humidity": 75}, "weather_42.33571_-83.04854": {"temperature": 37.45, "humidity": 71}, "weather_42.3315474973021_-83.0451285839081": {"temperature": 37.54, "humidity": 75}, "weather_42.37118_-83.06738": {"temperature": 37.04, "humidity": 73}, "weather_42.31953_-83.09817": {"temperature": 37.24, "humidity": 74}, "weather_42.3527526855469_-83.0621490478516": {"temperature": 37.09, "humidity": 73}, "weather_42.3518200207707_-83.0638393259748": {"temperature": 37.11, "humidity": 73}, "weather_42.3344844608147_-83.0461140631014": {"temperature": 37.45, "humidity": 71}, "weather_42.53348_-83.06813": {"temperature": 36.77, "humidity": 72}, "weather_42.334592_-83.046533": {"temperature": 37.45, "humidity": 71}, "weather_42.38846_-82.94224": {"temperature": 37.6, "humidity": 70}, "weather_42.33439_-83.04848": {"temperature": 37.54, "humidity": 75}, "weather_42.593622_-83.128351": {"temperature": 36.34, "humidity": 75}, "weather_42.3668379_-83.0762624": {"temperature": 37.04, "humidity": 73}, "weather_42.37216_-83.06698": {"temperature": 37.04, "humidity": 73}, "weather_42.329274_-83.048393": {"temperature": 37.54, "humidity": 75}, "weather_42.53330632885156_-83.14544414009629": {"temperature": 36.46, "humidity": 73}, "weather_42.3330254_-83.0490163": {"temperature": 37.54, "humidity": 75}, "weather_42.33166_-83.07365": {"temperature": 37.24, "humidity": 74}, "weather_42.330573775892944_-83.04556": {"temperature": 37.54, "humidity": 75}, "weather_42.3630104064941_-83.0851440429688": {"temperature": 37.06, "humidity": 73}, "weather_42.2045719_-83.1512478": {"temperature": 37.47, "humidity": 72}, "weather_42.44542993460149_-83.165558510534": {"temperature": 36.45, "humidity": 73}, "weather_42.34494549457217_-83.0539818": {"temperature": 37.45, "humidity": 71}, "weather_42.3451704384376_-83.0555171146989": {"temperature": 37.13, "humidity": 73}, "weather_42.33429_-83.05003": {"temperature": 37.54, "humidity": 75}, "weather_42.34511360730288_-83.05596403890355": {"temperature": 37.13, "humidity": 73}, "weather_42.5505638_-83.0711804": {"temperature": 36.77, "humidity": 72}, "weather_42.346326_-83.038105": {"temperature": 37.49, "humidity": 75}, "weather_42.46028_-83.13631": {"temperature": 36.61, "humidity": 73}, "weather_42.3283429981483_-83.0632939479199": {"temperature": 37.26, "humidity": 74}, "weather_42.4616623233406_-83.1335839993136": {"temperature": 36.63, "humidity": 72}, "weather_42.33471_-83.04716": {"temperature": 37.54, "humidity": 75}, "weather_42.3811599683564_-82.940797794335": {"temperature": 37.67, "humidity": 70}, "weather_42.33663_-83.05229": {"temperature": 37.45, "humidity": 71}, "weather_42.360517_-83.066075": {"temperature": 37.08, "humidity": 73}, "weather_33.828108_-84.332114": {"temperature": 56.66, "humidity": 39}, "weather_33.772597_-84.36554129999999": {"temperature": 56.68, "humidity": 40}, "weather_33.7834774004647_-84.4112753": {"temperature": 56.41, "humidity": 40}, "weather_33.951151_-84.14607": {"temperature": 56.89, "humidity": 38}, "weather_33.76232668678114_-84.359065": {"temperature": 56.32, "humidity": 38}, "weather_33.75960845001672_-84.38691336112996": {"temperature": 55.9, "humidity": 40}, "weather_33.786155_-84.385836": {"temperature": 56.35, "humidity": 40}, "weather_33.75594913324995_-84.3893897151386": {"temperature": 55.9, "humidity": 40}, "weather_33.785173595314326_-84.41043550801024": {"temperature": 56.19, "humidity": 41}, "weather_33.75415_-84.3769": {"temperature": 55.99, "humidity": 40}, "weather_33.757_-84.39301": {"temperature": 55.9, "humidity": 40}, "weather_33.848667_-84.373376": {"temperature": 56.08, "humidity": 43}, "weather_33.84376_-84.37242": {"temperature": 56.07, "humidity": 43}, "weather_33.792654_-84.305009": {"temperature": 56.7, "humidity": 36}, "weather_33.779757214965265_-84.390326104329": {"temperature": 56.48, "humidity": 40}, "weather_33.96726313994366_-84.1425865": {"temperature": 56.62, "humidity": 39}, "weather_33.7738122_-84.2950894": {"temperature": 56.28, "humidity": 36}, "weather_33.8460604850629_-84.365521090213": {"temperature": 56.19, "humidity": 43}, "weather_33.90565_-84.27007": {"temperature": 56.21, "humidity": 41}, "weather_33.790982_-84.3075017": {"temperature": 56.57, "humidity": 37}, "weather_33.871665_-84.379812": {"temperature": 56.46, "humidity": 42}, "weather_33.59975_-84.37822": {"temperature": 54.97, "humidity": 46}, "weather_33.889166_-84.4698604": {"temperature": 55.6, "humidity": 44}, "weather_33.842613_-84.380224": {"temperature": 55.92, "humidity": 43}, "weather_33.90741_-84.2875710502267": {"temperature": 56.3, "humidity": 40}, "weather_33.74068922084906_-84.36115103622697": {"temperature": 56.19, "humidity": 38}, "weather_33.5684655_-84.3303289": {"temperature": 54.68, "humidity": 47}, "weather_34.011154006536756_-84.56273355948535": {"temperature": 55.58, "humidity": 45}, "weather_33.9073963545693_-84.2873783410004": {"temperature": 56.3, "humidity": 40}, "weather_33.91694701865537_-84.37979931860531": {"temperature": 55.85, "humidity": 42}, "weather_33.780215_-84.3839385": {"temperature": 56.34, "humidity": 40}, "weather_33.9528804_-84.13959729999999": {"temperature": 56.8, "humidity": 38}, "weather_33.73195_-84.42191": {"temperature": 55.72, "humidity": 40}, "weather_33.75117_-84.74814": {"temperature": 51.57, "humidity": 61}, "weather_33.847744_-84.366289": {"temperature": 56.19, "humidity": 43}, "weather_33.7813683_-84.3683472": {"temperature": 56.77, "humidity": 40}, "weather_33.9498353_-84.1269508": {"temperature": 56.86, "humidity": 38}, "weather_33.74038760349877_-84.34379527396007": {"temperature": 56.23, "humidity": 37}, "weather_33.89734_-84.28133": {"temperature": 56.25, "humidity": 41}, "weather_33.9486526_-84.3338413": {"temperature": 55.8, "humidity": 42}, "weather_33.7739334_-84.3611679": {"temperature": 56.14, "humidity": 38}, "weather_33.83012_-84.362511": {"temperature": 56.61, "humidity": 41}, "weather_33.8971_-84.29613": {"temperature": 56.19, "humidity": 42}, "weather_33.907386_-84.287352": {"temperature": 56.3, "humidity": 40}, "weather_33.9506_-84.52245": {"temperature": 55.18, "humidity": 45}, "weather_34.048923010518436_-84.6011774": {"temperature": 54.77, "humidity": 46}, "weather_42.46057_-83.14722": {"temperature": 36.54, "humidity": 73}, "weather_42.365936_-83.068946": {"temperature": 37.06, "humidity": 73}, "weather_42.43865_-83.02469": {"temperature": 37.15, "humidity": 74}, "weather_42.372525_-83.068515": {"temperature": 37.06, "humidity": 73}, "weather_42.3671719094123_-83.0057251988996": {"temperature": 37.45, "humidity": 70}, "weather_42.2906112_-83.0245987": {"temperature": 37.29, "humidity": 74}, "weather_42.5027407_-83.1964651": {"temperature": 36.16, "humidity": 74}, "weather_42.5278898_-83.306377": {"temperature": 35.67, "humidity": 77}, "weather_42.3701563863395_-83.19719590211811": {"temperature": 36.75, "humidity": 74}, "weather_42.4275184404661_-83.16040028534826": {"temperature": 36.54, "humidity": 73}, "weather_42.3311386_-83.0741501": {"temperature": 37.4, "humidity": 71}, "weather_42.533807_-83.107994": {"temperature": 36.61, "humidity": 73}, "weather_42.331394_-83.070612": {"temperature": 37.4, "humidity": 71}, "weather_42.32608_-83.32499": {"temperature": 36.63, "humidity": 71}, "weather_42.36754_-83.3754": {"temperature": 36.43, "humidity": 74}, "weather_42.564237_-82.893531": {"temperature": 37.36, "humidity": 68}, "weather_42.48989_-83.15251": {"temperature": 36.46, "humidity": 73}, "weather_42.446922_-83.069514": {"temperature": 36.88, "humidity": 72}, "weather_42.3313255_-83.1401672": {"temperature": 37.17, "humidity": 74}, "weather_42.47034_-83.42496": {"temperature": 35.44, "humidity": 77}, "weather_42.36283_-83.09448": {"temperature": 37.02, "humidity": 73}, "weather_42.4614_-83.11138": {"temperature": 36.75, "humidity": 73}, "weather_42.4645848_-82.9757004": {"temperature": 37.09, "humidity": 71}, "weather_42.45484_-83.133064": {"temperature": 36.63, "humidity": 73}, "weather_42.548663_-83.09074": {"temperature": 36.64, "humidity": 73}, "weather_42.2412039_-83.1807409": {"temperature": 37.11, "humidity": 72}, "weather_42.34876_-83.06209": {"temperature": 37.11, "humidity": 73}, "weather_42.3436459_-83.0594656": {"temperature": 37.18, "humidity": 73}, "weather_42.34702418680086_-83.0602593261948": {"temperature": 37.11, "humidity": 73}, "weather_42.34053_-83.17708": {"temperature": 36.91, "humidity": 74}, "weather_42.4855528069398_-82.944938338623": {"temperature": 37.17, "humidity": 71}, "weather_42.35377_-83.136526": {"temperature": 37.04, "humidity": 74}, "weather_42.3898544311523_-83.1399841308594": {"temperature": 36.82, "humidity": 73}, "weather_42.46475_-83.4231": {"temperature": 35.46, "humidity": 77}, "weather_42.4655317_-82.9326848": {"temperature": 37.31, "humidity": 71}, "weather_42.3814525_-82.9409561": {"temperature": 37.67, "humidity": 70}, "weather_42.4211959838867_-83.0621871948242": {"temperature": 36.95, "humidity": 72}, "weather_42.4677811_-82.9065323": {"temperature": 37.36, "humidity": 70}, "weather_42.48154_-83.10451": {"temperature": 36.73, "humidity": 72}, "weather_42.44713_-83.03522": {"temperature": 36.99, "humidity": 72}, "weather_42.3802871704102_-83.1388397216797": {"temperature": 36.88, "humidity": 73}, "weather_42.414219_-82.970323": {"temperature": 37.45, "humidity": 70}, "weather_42.3890419_-83.1986084": {"temperature": 36.66, "humidity": 75}, "weather_42.27547_-83.19333": {"temperature": 37.06, "humidity": 72}, "weather_42.4612884521484_-83.1330718994141": {"temperature": 36.61, "humidity": 73}, "weather_42.37226_-83.19926": {"temperature": 36.75, "humidity": 74}, "weather_42.3313484_-83.1269684": {"temperature": 37.18, "humidity": 74}, "weather_42.369095981959106_-83.3520768": {"temperature": 36.46, "humidity": 74}, "weather_42.2994358_-83.267657": {"temperature": 36.82, "humidity": 71}, "weather_42.4756050109863_-83.0064697265625": {"temperature": 37, "humidity": 71}, "weather_37.1072063644431_-119.318658094592": {"temperature": 42.69, "humidity": 69}, "weather_37.33914_-119.64334": {"temperature": 55.71, "humidity": 70}, "weather_37.2523899835237_-119.173982716342": {"temperature": 38.17, "humidity": 91}, "weather_37.1075958172791_-119.318211860955": {"temperature": 42.69, "humidity": 69}, "weather_37.2049164504_-119.247342538": {"temperature": 45.63, "humidity": 87}, "weather_37.3331104_-119.660292": {"temperature": 55.71, "humidity": 68}, "weather_37.222901666356094_-119.51034953711938": {"temperature": 53.82, "humidity": 68}, "weather_37.333745_-119.649773": {"temperature": 55.62, "humidity": 70}, "weather_37.1093496_-119.3194913": {"temperature": 42.69, "humidity": 69}, "weather_37.25301805088366_-119.16708464533592": {"temperature": 38.17, "humidity": 91}, "weather_37.03952_-119.41891": {"temperature": 52.63, "humidity": 67}, "weather_37.319885_-119.556671": {"temperature": 51.53, "humidity": 70}, "weather_37.106345_-119.319681": {"temperature": 42.85, "humidity": 69}, "weather_37.20611_-119.24784": {"temperature": 45.64, "humidity": 87}, "weather_37.1074244_-119.3191947": {"temperature": 42.85, "humidity": 69}, "weather_37.1066883058277_-119.31869738456582": {"temperature": 42.85, "humidity": 69}, "weather_37.227172_-119.509352": {"temperature": 54.25, "humidity": 68}, "weather_37.262002_-119.698737": {"temperature": 55.71, "humidity": 67}, "weather_37.09943600798667_-119.3181149": {"temperature": 42.94, "humidity": 69}, "weather_37.54826721570613_-119.644369": {"temperature": 49.17, "humidity": 78}, "weather_37.10655_-119.31953": {"temperature": 42.85, "humidity": 69}, "weather_37.473315119839704_-119.63520543111326": {"temperature": 46.2, "humidity": 70}, "weather_36.762273_-119.139226": {"temperature": 54.63, "humidity": 70}, "weather_37.4552142_-119.6448862": {"temperature": 46.98, "humidity": 70}, "weather_37.32073_-119.5586": {"temperature": 51.53, "humidity": 70}, "weather_37.5744737298908_-119.951261111075": {"temperature": 55.15, "humidity": 52}, "weather_37.678049_-119.765525": {"temperature": 55.72, "humidity": 70}, "weather_37.1076073497534_-119.319066479802": {"temperature": 42.85, "humidity": 69}, "weather_37.1385442734024_-119.308465719223": {"temperature": 43.72, "humidity": 69}, "weather_37.0667809_-119.3571531": {"temperature": 45.63, "humidity": 67}, "weather_37.33325490000001_-119.6508896": {"temperature": 55.62, "humidity": 70}, "weather_37.328385_-119.647729": {"temperature": 55.62, "humidity": 70}, "weather_37.4848079_-119.9654933": {"temperature": 56.25, "humidity": 52}, "weather_37.77786859996005_-119.07625746871936": {"temperature": 36.55, "humidity": 57}, "weather_37.472875828000596_-119.63827583878314": {"temperature": 46.2, "humidity": 70}, "weather_37.2293291344468_-119.504378036805": {"temperature": 54.09, "humidity": 68}, "weather_37.01699_-119.4002011": {"temperature": 55.89, "humidity": 67}, "weather_36.738416_-119.120118": {"temperature": 56.1, "humidity": 71}, "weather_37.817701_-120.058413": {"temperature": 48.85, "humidity": 57}, "weather_37.1018254_-119.3182003": {"temperature": 42.94, "humidity": 69}, "weather_37.4786650301814_-119.638415163021": {"temperature": 46.44, "humidity": 70}, "weather_37.2622980132899_-119.700374975394": {"temperature": 55.17, "humidity": 67}, "weather_37.37555_-119.62456": {"temperature": 53.26, "humidity": 70}, "weather_37.4896393_-119.9700699": {"temperature": 56.12, "humidity": 52}, "weather_36.7876810653037_-118.913162235053": {"temperature": 46.18, "humidity": 76}, "weather_36.6972284_-119.0148133": {"temperature": 49.91, "humidity": 78}, "weather_37.214007_-119.685251": {"temperature": 55.71, "humidity": 67}, "weather_37.23038433837862_-119.5098629": {"temperature": 54.25, "humidity": 68}, "weather_37.230386_-119.50986": {"temperature": 54.25, "humidity": 68}, "weather_40.72561796731312_-73.99526341371117": {"temperature": 59.86, "humidity": 42}, "weather_40.722766_-73.996233": {"temperature": 59.63, "humidity": 41}, "weather_40.84651_-73.93882": {"temperature": 59.29, "humidity": 43}, "weather_40.729084_-73.998832": {"temperature": 59.86, "humidity": 42}, "weather_40.73225_-74.00078": {"temperature": 59.86, "humidity": 42}, "weather_40.7294082641602_-73.9787216186523": {"temperature": 59.81, "humidity": 41}, "weather_40.6979738_-73.9279654": {"temperature": 59.92, "humidity": 41}, "weather_40.742666939835374_-73.98484186646938": {"temperature": 59.86, "humidity": 41}, "weather_40.79828_-73.96101": {"temperature": 59.65, "humidity": 42}, "weather_40.722998_-73.994171": {"temperature": 59.65, "humidity": 41}, "weather_40.70042_-73.92498": {"temperature": 59.94, "humidity": 41}, "weather_40.79804_-73.941": {"temperature": 59.86, "humidity": 42}, "weather_40.64493_-74.21224": {"temperature": 59.09, "humidity": 43}, "weather_40.7545675_-73.8934179": {"temperature": 59.81, "humidity": 41}, "weather_40.7227817622351_-73.9871987509262": {"temperature": 59.65, "humidity": 41}, "weather_40.72063_-73.98539": {"temperature": 59.65, "humidity": 41}, "weather_40.702241_-73.995539": {"temperature": 59.76, "humidity": 41}, "weather_40.7489644_-73.8690814": {"temperature": 59.86, "humidity": 41}, "weather_40.707471_-74.001911": {"temperature": 59.74, "humidity": 41}, "weather_40.728839_-73.987028": {"temperature": 59.74, "humidity": 41}, "weather_40.7459065_-73.915103": {"temperature": 59.88, "humidity": 41}, "weather_40.705644_-74.00188": {"temperature": 59.74, "humidity": 41}, "weather_40.72707_-74.00283": {"temperature": 59.86, "humidity": 42}, "weather_40.71141_-73.94762": {"temperature": 59.76, "humidity": 40}, "weather_40.80402_-73.99376": {"temperature": 59.94, "humidity": 42}, "weather_40.74765439999999_-74.00352480000001": {"temperature": 59.83, "humidity": 42}, "weather_40.72418_-74.00837": {"temperature": 59.95, "humidity": 42}, "weather_40.71503_-73.99956": {"temperature": 59.63, "humidity": 41}, "weather_40.720087_-74.000892": {"temperature": 59.63, "humidity": 41}, "weather_40.72686027756351_-74.00190197259043": {"temperature": 59.86, "humidity": 42}, "weather_40.68808_-73.9551": {"temperature": 59.68, "humidity": 40}, "weather_40.75218_-74.04531": {"temperature": 59.07, "humidity": 42}, "weather_40.722756810450875_-73.98904311554566": {"temperature": 59.65, "humidity": 41}, "weather_40.75495_-73.98616": {"temperature": 59.59, "humidity": 42}, "weather_40.7692325_-73.9578759": {"temperature": 59.77, "humidity": 42}, "weather_40.7141_-74.00949": {"temperature": 59.85, "humidity": 41}, "weather_40.6967_-73.99003": {"temperature": 59.85, "humidity": 41}, "weather_40.71958_-73.99734": {"temperature": 59.63, "humidity": 41}, "weather_40.71503_-74.0158397": {"temperature": 59.7, "humidity": 41}, "weather_40.68675727907743_-73.99101547782092": {"temperature": 59.68, "humidity": 40}, "weather_40.7389111700125_-73.9999985153443": {"temperature": 59.86, "humidity": 42}, "weather_40.700136_-73.907512": {"temperature": 59.81, "humidity": 41}, "weather_40.71888_-73.99951": {"temperature": 59.63, "humidity": 41}, "weather_40.721988_-73.992466": {"temperature": 59.65, "humidity": 41}, "weather_40.69506_-73.98339": {"temperature": 59.72, "humidity": 40}, "weather_40.69479_-73.93094": {"temperature": 59.76, "humidity": 40}, "weather_40.7501754760742_-73.9821929931641": {"temperature": 59.58, "humidity": 42}, "weather_40.721839_-73.987355": {"temperature": 59.7, "humidity": 41}, "weather_40.6957059_-73.9840267": {"temperature": 59.72, "humidity": 40}, "weather_40.70240674625475_-73.99553367610274": {"temperature": 59.74, "humidity": 41}, "weather_40.71611960063392_-73.99674122883555": {"temperature": 59.63, "humidity": 41}, "weather_40.68791521927802_-73.98367856924632": {"temperature": 59.74, "humidity": 40}, "weather_40.72302838_-73.99744294": {"temperature": 59.63, "humidity": 41}, "weather_40.71566_-74.0089": {"temperature": 59.77, "humidity": 41}, "weather_40.73618_-73.9966": {"temperature": 59.63, "humidity": 41}, "weather_40.7275586084056_-74.0057217632294": {"temperature": 59.65, "humidity": 41}, "weather_40.735958_-73.986961": {"temperature": 59.81, "humidity": 42}, "weather_40.71929_-73.99686": {"temperature": 59.63, "humidity": 41}, "weather_40.7245521_-73.9988299": {"temperature": 59.63, "humidity": 41}, "weather_40.721297_-73.9993957": {"temperature": 59.63, "humidity": 41}, "weather_40.71478_-73.99206": {"temperature": 59.95, "humidity": 41}, "weather_40.7209583_-74.0054276": {"temperature": 59.77, "humidity": 41}, "weather_40.7635219_-73.8283762": {"temperature": 59.86, "humidity": 41}, "weather_40.76157679275397_-73.98495063720071": {"temperature": 59.63, "humidity": 42}, "weather_40.71903_-73.99437": {"temperature": 59.76, "humidity": 41}, "weather_40.88164_-73.83856": {"temperature": 59.72, "humidity": 45}, "weather_40.7294565439224_-73.9897911250591": {"temperature": 59.88, "humidity": 41}, "weather_40.731601_-73.989509": {"temperature": 59.88, "humidity": 41}, "weather_40.75641_-73.98547": {"temperature": 59.72, "humidity": 42}, "weather_40.73257_-73.99685": {"temperature": 59.61, "humidity": 41}, "weather_40.7215137888895_-73.9587011987419": {"temperature": 59.79, "humidity": 41}, "weather_40.7394117_-73.8896648": {"temperature": 59.9, "humidity": 41}, "weather_40.742169623078134_-73.98473105310612": {"temperature": 59.68, "humidity": 41}, "weather_40.7278523436442_-73.9907492250947": {"temperature": 59.88, "humidity": 41}, "weather_40.7260093149249_-73.9915595677216": {"temperature": 59.88, "humidity": 41}, "weather_40.7334389395744_-73.9900782372587": {"temperature": 59.74, "humidity": 41}, "weather_40.71264339026144_-74.0091883883457": {"temperature": 59.85, "humidity": 41}, "weather_40.80815_-73.9509999": {"temperature": 59.95, "humidity": 42}, "weather_40.6937442558137_-73.9885747432708": {"temperature": 59.68, "humidity": 40}, "weather_40.815134977217866_-73.91595950825246": {"temperature": 60.21, "humidity": 42}, "weather_40.72069_-73.99366": {"temperature": 59.65, "humidity": 41}, "weather_40.72836_-73.98497": {"temperature": 59.81, "humidity": 41}, "weather_40.687842_-73.98187": {"temperature": 59.67, "humidity": 40}, "weather_40.720831_-73.9587603": {"temperature": 59.9, "humidity": 41}, "weather_40.719896_-74.000078": {"temperature": 59.63, "humidity": 41}, "weather_40.588406_-74.2792816": {"temperature": 58.73, "humidity": 43}, "weather_40.719787_-73.958137": {"temperature": 59.9, "humidity": 41}, "weather_40.5814876_-73.830084": {"temperature": 60.1, "humidity": 41}, "weather_40.76143_-73.98745": {"temperature": 59.56, "humidity": 42}, "weather_40.7186077_-73.989761": {"temperature": 59.65, "humidity": 41}, "weather_40.74063741_-74.0059231": {"temperature": 59.65, "humidity": 41}, "weather_40.7222796349227_-73.9571206358786": {"temperature": 59.9, "humidity": 41}, "weather_40.7280006_-73.9442368": {"temperature": 60.04, "humidity": 41}, "weather_40.709564_-74.0099212": {"temperature": 59.85, "humidity": 41}, "weather_40.72188667_-73.958105": {"temperature": 59.9, "humidity": 41}, "weather_40.8618_-73.83059": {"temperature": 60.12, "humidity": 42}, "weather_40.702601240302045_-73.99415047815798": {"temperature": 59.85, "humidity": 41}, "weather_40.71945_-73.9898": {"temperature": 59.65, "humidity": 41}, "weather_40.753252178381175_-73.98699086652658": {"temperature": 59.59, "humidity": 42}, "weather_40.72535710437942_-73.9832095": {"temperature": 59.81, "humidity": 41}, "weather_40.7234745_-73.9940988": {"temperature": 59.65, "humidity": 41}, "weather_40.73497_-73.99304": {"temperature": 59.74, "humidity": 41}, "weather_40.72612422441371_-73.998722": {"temperature": 59.86, "humidity": 42}, "weather_40.7043789539783_-74.0029934983643": {"temperature": 59.76, "humidity": 41}, "weather_40.68713792548407_-73.9908801": {"temperature": 59.68, "humidity": 40}, "weather_40.705116_-73.931991": {"temperature": 59.79, "humidity": 41}, "weather_40.71419236_-74.01548228": {"temperature": 59.77, "humidity": 41}, "weather_37.211499_-119.699183": {"temperature": 56.98, "humidity": 66}, "weather_37.77843779339806_-119.07629549285323": {"temperature": 36.55, "humidity": 57}}